"pop","lat","long","locality","source","collection_date","dna_extraction","seq","N","num","old_num","old_name","notes","publication"
17052,,,,"Abdellah",,,"kasp_3",,,,,,"unpublished"
"01-California-NEW",44.631,-124.049,"Newport Harbor, Oregon, USA","Norah Saarman + Grant Pogson",2010,,"beadxpress",,1,1,"NEW","approximate coordinates","Simon, A., Fraïsse, C., Lieuthard-Haag, C., Buerkle, C. A., Welch, J. J., & Bierne, N. (in prep.). The two spatial frames of introgression in a mosaic of mussel lineages."
"02-Oregon-Coos",43.366,-124.217,"Coos Bay, Oregon, USA","Norah Saarman + Grant Pogson",,,"beadxpress",,2,2,"Coos_Bay","approximate coordinates","Simon, A., Fraïsse, C., Lieuthard-Haag, C., Buerkle, C. A., Welch, J. J., & Bierne, N. (in prep.). The two spatial frames of introgression in a mosaic of mussel lineages."
"03-California-Carlsbad",33.156302,-117.352779,"Carlsbad, California, USA","Norah Saarman + Grant Pogson",,,"beadxpress",,3,3,"mg","approximate coordinates","Simon, A., Fraïsse, C., Lieuthard-Haag, C., Buerkle, C. A., Welch, J. J., & Bierne, N. (in prep.). The two spatial frames of introgression in a mosaic of mussel lineages."
"04-SantaBarbara",34.42,-119.698,"Santa Barbara, California, USA","Norah Saarman + Grant Pogson",2010,,"beadxpress",,4,4,"SAB","approximate coordinates","Simon, A., Fraïsse, C., Lieuthard-Haag, C., Buerkle, C. A., Welch, J. J., & Bierne, N. (in prep.). The two spatial frames of introgression in a mosaic of mussel lineages."
"05-California-TBR",37.89,-122.446,"Tiburon Point, SF, California, USA","Norah Saarman + Grant Pogson",2010,,"beadxpress",,5,5,"TBR","approximate coordinates","Simon, A., Fraïsse, C., Lieuthard-Haag, C., Buerkle, C. A., Welch, J. J., & Bierne, N. (in prep.). The two spatial frames of introgression in a mosaic of mussel lineages."
"06-California-BRK",37.866,-122.317,"Berkeley Marina, SF, California, USA","Norah Saarman + Grant Pogson",2010,,"beadxpress",,6,6,"BRK","approximate coordinates","Simon, A., Fraïsse, C., Lieuthard-Haag, C., Buerkle, C. A., Welch, J. J., & Bierne, N. (in prep.). The two spatial frames of introgression in a mosaic of mussel lineages."
"07-California-LAM",37.802713,-122.257995,"Lake Merritt, SF, California, USA","Norah Saarman + Grant Pogson",,,"beadxpress",,7,7,"LAM","approximate coordinates","Simon, A., Fraïsse, C., Lieuthard-Haag, C., Buerkle, C. A., Welch, J. J., & Bierne, N. (in prep.). The two spatial frames of introgression in a mosaic of mussel lineages."
"07PROBE-05270",58.769,-93.891,"Bird Cove, Manitoba, 16 km E Churchill, Canada","University of Guelph Centre for Biodiversity Genomics",,"NucleoMag_tissue","kasp_2",,,,,,"unpublished"
"07PROBE-05283",58.766,-93.891,"Bird Cove, Manitoba, 16 km E Churchill, Canada","University of Guelph Centre for Biodiversity Genomics",,"NucleoMag_tissue","kasp_2",,,,,,"unpublished"
"08-StLawrence-CBD",48.269414,-69.466146,"Cap de Bon Désir, Québec, Canada","Pierre-Alexandre Gagnaire + Christopher Sauvage",2010,,"ngs",,8,8,"CBD","approximate coordinates","Simon, A., Fraïsse, C., Lieuthard-Haag, C., Buerkle, C. A., Welch, J. J., & Bierne, N. (in prep.). The two spatial frames of introgression in a mosaic of mussel lineages."
"09-StLawrence-TAD",48.134413,-69.696141,"Tadoussac, Québec, Canada","Pierre-Alexandre Gagnaire + Christopher Sauvage",2010,,"beadxpress",,9,9,"tad","approximate coordinates","Simon, A., Fraïsse, C., Lieuthard-Haag, C., Buerkle, C. A., Welch, J. J., & Bierne, N. (in prep.). The two spatial frames of introgression in a mosaic of mussel lineages."
"10-LgIs-SHM",41.386917,-71.519167,"Snug Harbor Marina, Charlestown, Long Island, USA","Célia Gosset",2009,,"beadxpress",,10,16,"shm",,"Simon, A., Fraïsse, C., Lieuthard-Haag, C., Buerkle, C. A., Welch, J. J., & Bierne, N. (in prep.). The two spatial frames of introgression in a mosaic of mussel lineages."
"11-LgIs-QNT",41.332694,-71.713333,"Quonochontaug, Long Island, USA","Célia Gosset",2009,,"ngs",,11,15,"QNT",,"Simon, A., Fraïsse, C., Lieuthard-Haag, C., Buerkle, C. A., Welch, J. J., & Bierne, N. (in prep.). The two spatial frames of introgression in a mosaic of mussel lineages."
"12-LgIs-BYY",41.346694,-71.967583,"Brewer Yacht Yard, Mystic River, Long Island, USA","Célia Gosset",2009,,"beadxpress",,12,10,"BYY",,"Simon, A., Fraïsse, C., Lieuthard-Haag, C., Buerkle, C. A., Welch, J. J., & Bierne, N. (in prep.). The two spatial frames of introgression in a mosaic of mussel lineages."
"13-LgIs-OST",41.263278,-72.384194,"Old Saybrook Town, Hartlands Drive, Long Island, USA","Célia Gosset",2009,,"ngs",,13,14,"Ost",,"Simon, A., Fraïsse, C., Lieuthard-Haag, C., Buerkle, C. A., Welch, J. J., & Bierne, N. (in prep.). The two spatial frames of introgression in a mosaic of mussel lineages."
"14-LgIs-BFM",41.260556,-72.820722,"Branford Harbor, Long Island, USA","Célia Gosset",2009,,"beadxpress",,14,13,"BFM",,"Simon, A., Fraïsse, C., Lieuthard-Haag, C., Buerkle, C. A., Welch, J. J., & Bierne, N. (in prep.). The two spatial frames of introgression in a mosaic of mussel lineages."
"15-LgIs-MYC",41.210917,-73.051528,"Milford Yacht Club, Long Island, USA","Célia Gosset",2009,,"ngs",,15,12,"Myc",,"Simon, A., Fraïsse, C., Lieuthard-Haag, C., Buerkle, C. A., Welch, J. J., & Bierne, N. (in prep.). The two spatial frames of introgression in a mosaic of mussel lineages."
"16-LgIs-SPM",41.107222,-73.354778,"Southport Marina, Long Island, USA","Célia Gosset",2009,,"beadxpress",,16,11,"SPM",,"Simon, A., Fraïsse, C., Lieuthard-Haag, C., Buerkle, C. A., Welch, J. J., & Bierne, N. (in prep.). The two spatial frames of introgression in a mosaic of mussel lineages."
"17-Boston",42.36,-71.05,"Boston, USA","Célia Gosset",2009,,"beadxpress",,17,17,"Bost",,"Simon, A., Fraïsse, C., Lieuthard-Haag, C., Buerkle, C. A., Welch, J. J., & Bierne, N. (in prep.). The two spatial frames of introgression in a mosaic of mussel lineages."
"18-NovyMost",68.904723,33.026324,"Novy Most, Russia","Petr Strelkov",2014,,"beadxpress",,18,18,"NOVI","approximate coordinates","Simon, A., Fraïsse, C., Lieuthard-Haag, C., Buerkle, C. A., Welch, J. J., & Bierne, N. (in prep.). The two spatial frames of introgression in a mosaic of mussel lineages."
"19-Retinskoye",69.114088,33.387851,"Retinskoye, Russia","Petr Strelkov",2014,,"beadxpress",,19,19,"RET","approximate coordinates","Simon, A., Fraïsse, C., Lieuthard-Haag, C., Buerkle, C. A., Welch, J. J., & Bierne, N. (in prep.). The two spatial frames of introgression in a mosaic of mussel lineages."
"20-Oresund-Helsinborg",56.04,12.694,"Helsinborg, Oresund, Sweden",,,,"beadxpress",,20,20,"ORE","approximate coordinates","Simon, A., Fraïsse, C., Lieuthard-Haag, C., Buerkle, C. A., Welch, J. J., & Bierne, N. (in prep.). The two spatial frames of introgression in a mosaic of mussel lineages."
"21-Oresund-Raa",55.999,12.74,"Raa, Oresund, Sweden",,,,"beadxpress",,21,21,"raa","approximate coordinates","Simon, A., Fraïsse, C., Lieuthard-Haag, C., Buerkle, C. A., Welch, J. J., & Bierne, N. (in prep.). The two spatial frames of introgression in a mosaic of mussel lineages."
"22-Tvarminne",59.841,23.201,"Tvarminne, Finland",,,,"ngs",,22,22,"Tva","approximate coordinates","Simon, A., Fraïsse, C., Lieuthard-Haag, C., Buerkle, C. A., Welch, J. J., & Bierne, N. (in prep.). The two spatial frames of introgression in a mosaic of mussel lineages."
"23-Edinburgh",55.95,-3.18,"Edinburgh, Scotland, UK",,,,"beadxpress",,23,23,"Ed","approximate coordinates","Simon, A., Fraïsse, C., Lieuthard-Haag, C., Buerkle, C. A., Welch, J. J., & Bierne, N. (in prep.). The two spatial frames of introgression in a mosaic of mussel lineages."
"24-Aberdeen",57.14,-2.094,"Aberdeen, Scotland, UK",,,,"beadxpress",,24,24,"Ab","approximate coordinates","Simon, A., Fraïsse, C., Lieuthard-Haag, C., Buerkle, C. A., Welch, J. J., & Bierne, N. (in prep.). The two spatial frames of introgression in a mosaic of mussel lineages."
"25-Kenmare",51.88,-9.583,"Kenmare, Ireland",,,,"beadxpress",,25,28,"Ken","approximate coordinates","Simon, A., Fraïsse, C., Lieuthard-Haag, C., Buerkle, C. A., Welch, J. J., & Bierne, N. (in prep.). The two spatial frames of introgression in a mosaic of mussel lineages."
"26-Wadden-sea",53.31,5.424,"Wadden Sea, The Netherlands",,2009,,"ngs",,26,25,"Nor","approximate coordinates","Simon, A., Fraïsse, C., Lieuthard-Haag, C., Buerkle, C. A., Welch, J. J., & Bierne, N. (in prep.). The two spatial frames of introgression in a mosaic of mussel lineages."
"27-Calais",50.974978,1.870983,"Calais, France",,,,"beadxpress",,27,26,"C","approximate coordinates","Simon, A., Fraïsse, C., Lieuthard-Haag, C., Buerkle, C. A., Welch, J. J., & Bierne, N. (in prep.). The two spatial frames of introgression in a mosaic of mussel lineages."
"28-Barfleur",49.670616,-1.263,"Barfleur, France",,,,"beadxpress",,28,27,"BAR","approximate coordinates","Simon, A., Fraïsse, C., Lieuthard-Haag, C., Buerkle, C. A., Welch, J. J., & Bierne, N. (in prep.). The two spatial frames of introgression in a mosaic of mussel lineages."
"29-Cherbourg",49.63942,-1.61994,"Cherbourg, France",,,,"beadxpress",,29,29,"CHER","approximate coordinates","Simon, A., Fraïsse, C., Lieuthard-Haag, C., Buerkle, C. A., Welch, J. J., & Bierne, N. (in prep.). The two spatial frames of introgression in a mosaic of mussel lineages."
"30-Dinard",48.633,-2.05,"Dinard, France",,,,"beadxpress",,30,30,"DIN","approximate coordinates","Simon, A., Fraïsse, C., Lieuthard-Haag, C., Buerkle, C. A., Welch, J. J., & Bierne, N. (in prep.). The two spatial frames of introgression in a mosaic of mussel lineages."
"31-Roscoff",48.72,-3.98,"Roscoff, France",,,,"beadxpress",,31,31,"Ros","approximate coordinates","Simon, A., Fraïsse, C., Lieuthard-Haag, C., Buerkle, C. A., Welch, J. J., & Bierne, N. (in prep.). The two spatial frames of introgression in a mosaic of mussel lineages."
"32-Guillec",48.687003,-4.071535,"Guillec, France",,,,"ngs",,32,32,"Gui","approximate coordinates","Simon, A., Fraïsse, C., Lieuthard-Haag, C., Buerkle, C. A., Welch, J. J., & Bierne, N. (in prep.). The two spatial frames of introgression in a mosaic of mussel lineages."
"33-Kerbihan",47.576883,-3.021033,"Kerbihan, France",,,,"beadxpress",,33,33,"BRET","approximate coordinates","Simon, A., Fraïsse, C., Lieuthard-Haag, C., Buerkle, C. A., Welch, J. J., & Bierne, N. (in prep.). The two spatial frames of introgression in a mosaic of mussel lineages."
"34-Pornichet",47.26,-2.34,"Pornichet, France",,,,"beadxpress",,34,34,"Por","approximate coordinates","Simon, A., Fraïsse, C., Lieuthard-Haag, C., Buerkle, C. A., Welch, J. J., & Bierne, N. (in prep.). The two spatial frames of introgression in a mosaic of mussel lineages."
"35-Gascogne",45.956,-1.037,"Gulf of Gascogne, Lupin, France",,,,"ngs",,35,35,"Gol","approximate coordinates","Simon, A., Fraïsse, C., Lieuthard-Haag, C., Buerkle, C. A., Welch, J. J., & Bierne, N. (in prep.). The two spatial frames of introgression in a mosaic of mussel lineages."
"36-Biscay",45.956,-1.037,"Bay of Biscay, Lupin, France",,,,"beadxpress",,36,36,"BB","approximate coordinates","Simon, A., Fraïsse, C., Lieuthard-Haag, C., Buerkle, C. A., Welch, J. J., & Bierne, N. (in prep.). The two spatial frames of introgression in a mosaic of mussel lineages."
"37-Aiguillon",46.325,-1.312,"L’Aiguillon-sur-Mer, Baie de l’Aiguillon, France",,,,"beadxpress",,37,37,"PA","approximate coordinates","Simon, A., Fraïsse, C., Lieuthard-Haag, C., Buerkle, C. A., Welch, J. J., & Bierne, N. (in prep.). The two spatial frames of introgression in a mosaic of mussel lineages."
"38-Arcachon",44.589,-1.239,"Arcachon, France",,,,"beadxpress",,38,38,"Arsud","approximate coordinates","Simon, A., Fraïsse, C., Lieuthard-Haag, C., Buerkle, C. A., Welch, J. J., & Bierne, N. (in prep.). The two spatial frames of introgression in a mosaic of mussel lineages."
"39-Biarritz",43.483,-1.558,"Biarritz, France",,,,"beadxpress",,39,39,"Brz","approximate coordinates","Simon, A., Fraïsse, C., Lieuthard-Haag, C., Buerkle, C. A., Welch, J. J., & Bierne, N. (in prep.). The two spatial frames of introgression in a mosaic of mussel lineages."
"40-Faro",37.01,-7.93,"Faro, Portugal",,,,"ngs",,40,40,"Atl","approximate coordinates","Simon, A., Fraïsse, C., Lieuthard-Haag, C., Buerkle, C. A., Welch, J. J., & Bierne, N. (in prep.). The two spatial frames of introgression in a mosaic of mussel lineages."
"41-Dahkla",23.72,-15.93,"Dahkla, Morocco",,,,"beadxpress",,41,41,"DKL","approximate coordinates","Simon, A., Fraïsse, C., Lieuthard-Haag, C., Buerkle, C. A., Welch, J. J., & Bierne, N. (in prep.). The two spatial frames of introgression in a mosaic of mussel lineages."
"42-Nador",35.166,-2.93,"Nador, Morocco",,,,"beadxpress",,42,42,"NDR","approximate coordinates","Simon, A., Fraïsse, C., Lieuthard-Haag, C., Buerkle, C. A., Welch, J. J., & Bierne, N. (in prep.). The two spatial frames of introgression in a mosaic of mussel lineages."
"43-Arzew",35.85,-0.316,"Arzew, Algeria",,,,"beadxpress",,43,43,"GO","approximate coordinates","Simon, A., Fraïsse, C., Lieuthard-Haag, C., Buerkle, C. A., Welch, J. J., & Bierne, N. (in prep.). The two spatial frames of introgression in a mosaic of mussel lineages."
"44-Moustaganem",35.93,0.083,"Moustaganem, Algeria",,,,"beadxpress",,44,44,"MMG","approximate coordinates","Simon, A., Fraïsse, C., Lieuthard-Haag, C., Buerkle, C. A., Welch, J. J., & Bierne, N. (in prep.). The two spatial frames of introgression in a mosaic of mussel lineages."
"45-SidiLakhdar",36.165,0.439,"Sidi Lakhdar, Algeria",,,,"beadxpress",,45,45,"MSL","approximate coordinates","Simon, A., Fraïsse, C., Lieuthard-Haag, C., Buerkle, C. A., Welch, J. J., & Bierne, N. (in prep.). The two spatial frames of introgression in a mosaic of mussel lineages."
"46-ElMarsa",36.81,3.244,"El Marsa, Algeria",,,,"beadxpress",,46,46,"EM","approximate coordinates","Simon, A., Fraïsse, C., Lieuthard-Haag, C., Buerkle, C. A., Welch, J. J., & Bierne, N. (in prep.). The two spatial frames of introgression in a mosaic of mussel lineages."
"47-Ghouraya",36.56,1.899,"Ghouraya, Algeria",,,,"beadxpress",,47,47,"MGA","approximate coordinates","Simon, A., Fraïsse, C., Lieuthard-Haag, C., Buerkle, C. A., Welch, J. J., & Bierne, N. (in prep.). The two spatial frames of introgression in a mosaic of mussel lineages."
"48-Tipaza",36.49,2.381,"Tipaza, Algeria",,,,"beadxpress",,48,48,"MTP","approximate coordinates","Simon, A., Fraïsse, C., Lieuthard-Haag, C., Buerkle, C. A., Welch, J. J., & Bierne, N. (in prep.). The two spatial frames of introgression in a mosaic of mussel lineages."
"49-SidiFredj",36.75,2.846,"Sidi Fredj, Algeria",,,,"beadxpress",,49,49,"MSF","approximate coordinates","Simon, A., Fraïsse, C., Lieuthard-Haag, C., Buerkle, C. A., Welch, J. J., & Bierne, N. (in prep.). The two spatial frames of introgression in a mosaic of mussel lineages."
"50-Bejaia",36.75,5.0567,"Bejaia, Algeria",,,,"beadxpress",,50,50,"Bej","approximate coordinates","Simon, A., Fraïsse, C., Lieuthard-Haag, C., Buerkle, C. A., Welch, J. J., & Bierne, N. (in prep.). The two spatial frames of introgression in a mosaic of mussel lineages."
"51-Ziama",36.66,5.483,"Ziama, Algeria",,,,"beadxpress",,51,51,"Zan","approximate coordinates","Simon, A., Fraïsse, C., Lieuthard-Haag, C., Buerkle, C. A., Welch, J. J., & Bierne, N. (in prep.). The two spatial frames of introgression in a mosaic of mussel lineages."
"52-Collo",37,6.56,"Collo, Algeria",,,,"beadxpress",,52,52,"Collo","approximate coordinates","Simon, A., Fraïsse, C., Lieuthard-Haag, C., Buerkle, C. A., Welch, J. J., & Bierne, N. (in prep.). The two spatial frames of introgression in a mosaic of mussel lineages."
"53-Thau",43.4,3.7,"Thau, France",,,,"ngs",,53,53,"Med","approximate coordinates","Simon, A., Fraïsse, C., Lieuthard-Haag, C., Buerkle, C. A., Welch, J. J., & Bierne, N. (in prep.). The two spatial frames of introgression in a mosaic of mussel lineages."
"54-Nules",39.853,-0.155,"Nules, Spain",,,,"beadxpress",,54,54,"Msar","approximate coordinates","Simon, A., Fraïsse, C., Lieuthard-Haag, C., Buerkle, C. A., Welch, J. J., & Bierne, N. (in prep.). The two spatial frames of introgression in a mosaic of mussel lineages."
"55-Bizerte",37.26,9.86,"Bizerte, Tunisia",,,,"beadxpress",,55,55,"BIZ","approximate coordinates","Simon, A., Fraïsse, C., Lieuthard-Haag, C., Buerkle, C. A., Welch, J. J., & Bierne, N. (in prep.). The two spatial frames of introgression in a mosaic of mussel lineages."
"56-Heraklion",35.338,25.1442,"Heraklion, Greece",,,,"ngs",,56,56,"Her","approximate coordinates","Simon, A., Fraïsse, C., Lieuthard-Haag, C., Buerkle, C. A., Welch, J. J., & Bierne, N. (in prep.). The two spatial frames of introgression in a mosaic of mussel lineages."
"57-Croatia",44.43,14.979,"Croatia",,,,"beadxpress",,57,57,"Coa","approximate coordinates","Simon, A., Fraïsse, C., Lieuthard-Haag, C., Buerkle, C. A., Welch, J. J., & Bierne, N. (in prep.). The two spatial frames of introgression in a mosaic of mussel lineages."
"58-Trabzon",41,39.71,"Trabzon, Turkey",,,,"beadxpress",,58,58,"TRA","approximate coordinates","Simon, A., Fraïsse, C., Lieuthard-Haag, C., Buerkle, C. A., Welch, J. J., & Bierne, N. (in prep.). The two spatial frames of introgression in a mosaic of mussel lineages."
"59-Croisement",,,,,,,"beadxpress",,59,59,,,"unpublished"
"60-Kerguelen",,,"Kerguelen",,,,"beadxpress",,60,60,,,"unpublished"
"Aber",57.147577,-2.073488,"ABD, Aberdeen, Scotland, UK",,,"NucleoMag_tissue","kasp_1",,,,,"approximate coordinates","Simon, A., Arbiol, C., Nielsen, E. E., Couteau, J., Sussarellu, R., Burgeot, T., … Bierne, N. (2019). Replicated anthropogenic hybridisations reveal parallel patterns of admixture in marine mussels. BioRxiv. https://doi.org/10.1101/590737"
"AG",56.722111,8.258194,"Agger Tange, Denmark","Lasse Fast Jensen","2016-09-27","NucleoMag_tissue","kasp_2",,,,,,"unpublished"
"Aig-Sel",,,,"Abdellah",,,"kasp_3",,,,,,"unpublished"
"Aig-Te",,,,"Abdellah",,,"kasp_3",,,,,,"unpublished"
"AIX_001",46.04045,-1.205567,"Ile d'Aix, France","MORBLEU","2016-11-30","NucleoMag_tissue","kasp_3",,,,,"Bouée Aix nord-ouest","Pepin Jean-Francois, Benabdelmouna Abdellah, Bierne Nicolas, Costes Louis, Degremont Lionel, Garcia Celine, Guesdon Stephane, Lamy Jean-Baptiste, Le Moine Olivier, Morga Benjamin, Normand Julien, Robert Stephane, Saunier Alice, Soletchnik Patrick, Travers Marie-Agnes (2018). Mortalités de moules bleues dans les secteurs mytilicoles : description et étude des facteurs liés, action –MORBLEU-2017. R.INT.RBE/SG2M-LGPMM-2018. https://archimer.ifremer.fr/doc/00503/61503/"
"AL",,,,"Petr Strelkov",,"NucleoMag_tissue","kasp_3",,,,,,"unpublished"
"AlgARZ",35.85,-0.316,"Arzew, Algeria",,,"NucleoMag_tissue","kasp_1",,,,,,"unpublished"
"AlgEM",36.81,3.244,"El Marsa, Algeria",,,"NucleoMag_tissue","kasp_1",,,,,,"unpublished"
"AM",68.98219,33.028131,"Abram Mis, Kola Bay, Russia","Petr Strelkov",2016,"NucleoMag_tissue","kasp_2",,,,,,"unpublished"
"AR",43.418517,-8.240612,"Ares, Galicia, Spain","Angel P. Diz",,"NucleoMag_tissue","kasp_2",,,,,"approximate coordinates","Unpublished: Diz A.P., Simon A., Bierne N., Skibinski D.O.F."
"Arc",44.669376,-1.174574,"Arcachon, France",,,"NucleoMag_tissue","kasp_2",,,,,"approximate coordinates","unpublished"
"Arc_Abdellah",,,,"Abdellah",,,"kasp_3",,,,,,"unpublished"
"ARC_VIG",44.67145,-1.238366,"Arcachon, France","MORBLEU","2016-11-28","NucleoMag_tissue","kasp_3",,,,,"en cours avant la in novembre début décembre  vers le 6 décembre réunion des assoce prévoir 1 bouteille de pineau contact le 3 novembre Prélèvement réalisé le 28 novembre  Port de la Vigne  44°40,287N et -001,14,302W  transformé 44,67145 et-001,238366W  prélèvement Myriam Rumbe Florence d'Amico","Pepin Jean-Francois, Benabdelmouna Abdellah, Bierne Nicolas, Costes Louis, Degremont Lionel, Garcia Celine, Guesdon Stephane, Lamy Jean-Baptiste, Le Moine Olivier, Morga Benjamin, Normand Julien, Robert Stephane, Saunier Alice, Soletchnik Patrick, Travers Marie-Agnes (2018). Mortalités de moules bleues dans les secteurs mytilicoles : description et étude des facteurs liés, action –MORBLEU-2017. R.INT.RBE/SG2M-LGPMM-2018. https://archimer.ifremer.fr/doc/00503/61503/"
"Ault",50.090583,1.423139,"Ault, France",,,"NucleoMag_tissue","kasp_1",,,,,,"Simon, A., Arbiol, C., Nielsen, E. E., Couteau, J., Sussarellu, R., Burgeot, T., … Bierne, N. (2019). Replicated anthropogenic hybridisations reveal parallel patterns of admixture in marine mussels. BioRxiv. https://doi.org/10.1101/590737"
"AUN_001",46.33305,-1.4268,"Rocher d'Aunis, France","MORBLEU","2016-11-07","NucleoMag_tissue","kasp_3",,,,,"prélèvement sur bouée niveau bouchot Les Ecluseaux : Nord Est pertuis Breton","Pepin Jean-Francois, Benabdelmouna Abdellah, Bierne Nicolas, Costes Louis, Degremont Lionel, Garcia Celine, Guesdon Stephane, Lamy Jean-Baptiste, Le Moine Olivier, Morga Benjamin, Normand Julien, Robert Stephane, Saunier Alice, Soletchnik Patrick, Travers Marie-Agnes (2018). Mortalités de moules bleues dans les secteurs mytilicoles : description et étude des facteurs liés, action –MORBLEU-2017. R.INT.RBE/SG2M-LGPMM-2018. https://archimer.ifremer.fr/doc/00503/61503/"
"AuPAU",,,,,,"NucleoMag_tissue","kasp_3",,,,,,"unpublished"
"B_amont",49.47124,0.14587,"Bassin Amont, Le Havre, France","Jérome Couteau (Toxem)",,"NucleoMag_tissue","kasp_2",,,,,,"Simon, A., Arbiol, C., Nielsen, E. E., Couteau, J., Sussarellu, R., Burgeot, T., … Bierne, N. (2019). Replicated anthropogenic hybridisations reveal parallel patterns of admixture in marine mussels. BioRxiv. https://doi.org/10.1101/590737"
"B_aval",49.47447,0.13242,"Bassin Aval, Le Havre, France","Jérome Couteau (Toxem)",,"NucleoMag_tissue","kasp_2",,,,,,"Simon, A., Arbiol, C., Nielsen, E. E., Couteau, J., Sussarellu, R., Burgeot, T., … Bierne, N. (2019). Replicated anthropogenic hybridisations reveal parallel patterns of admixture in marine mussels. BioRxiv. https://doi.org/10.1101/590737"
"Barf",49.71015,-1.258067,"Barfleur, France","Julien Normand + CRC Normandie",2015,"NucleoMag_tissue","kasp_1",,,,,,"Simon, A., Arbiol, C., Nielsen, E. E., Couteau, J., Sussarellu, R., Burgeot, T., … Bierne, N. (2019). Replicated anthropogenic hybridisations reveal parallel patterns of admixture in marine mussels. BioRxiv. https://doi.org/10.1101/590737"
"BBM",,,"Charente, France",,,"NucleoMag_tissue","kasp_1",,,,,,"unpublished"
"BBS",,,"Charente, France",,,"NucleoMag_tissue","kasp_1",,,,,,"unpublished"
"BCF1",,,"Backcross","Nicolas Bierne",,"NucleoMag_tissue","kasp_1",,,,,,"Simon, A., Arbiol, C., Nielsen, E. E., Couteau, J., Sussarellu, R., Burgeot, T., … Bierne, N. (2019). Replicated anthropogenic hybridisations reveal parallel patterns of admixture in marine mussels. BioRxiv. https://doi.org/10.1101/590737"
"BCG",,,"Backcross","Nicolas Bierne",,"NucleoMag_tissue","kasp_1",,,,,,"Simon, A., Arbiol, C., Nielsen, E. E., Couteau, J., Sussarellu, R., Burgeot, T., … Bierne, N. (2019). Replicated anthropogenic hybridisations reveal parallel patterns of admixture in marine mussels. BioRxiv. https://doi.org/10.1101/590737"
"BD",50.831278,-4.557036,"Bude, SW England, UK","Angel P. Diz",,"NucleoMag_tissue","kasp_2",,,,,"approximate coordinates","Unpublished: Diz A.P., Simon A., Bierne N., Skibinski D.O.F."
"BDC",50.0906,1.422817,"Bois-de-Cise, France","Julien Normand + CRC Normandie",2016,"NucleoMag_tissue","kasp_2",,,,,,"Simon, A., Arbiol, C., Nielsen, E. E., Couteau, J., Sussarellu, R., Burgeot, T., … Bierne, N. (2019). Replicated anthropogenic hybridisations reveal parallel patterns of admixture in marine mussels. BioRxiv. https://doi.org/10.1101/590737"
"Be",60.380691,5.334084,"Bergen, Norway","Petr Strelkov",2015,"NucleoMag_tissue","kasp_2",,,,,"under the Bridge","unpublished"
"BER",50.429867,1.559517,"Berck, France","Jérome Couteau (Toxem) + Rossana Sussarellu",2016,"NucleoMag_tissue","kasp_2",,,,,"ROCCH station 3, Q2 code 005-P-006","unpublished"
"Berg",60.395604,5.305726,"Bergen, Norway",,,"NucleoMag_tissue","kasp_1",,,,,"approximate coordinates","Simon, A., Arbiol, C., Nielsen, E. E., Couteau, J., Sussarellu, R., Burgeot, T., … Bierne, N. (2019). Replicated anthropogenic hybridisations reveal parallel patterns of admixture in marine mussels. BioRxiv. https://doi.org/10.1101/590737"
"BES",49.351067,-0.753603,"Port en Bessin, France","Jérome Couteau (Toxem) + Rossana Sussarellu",2016,"NucleoMag_tissue","kasp_2",,,,,"ROCCH station 10, Q2 code 013-P-001","unpublished"
"BFH",41.260556,-72.462528,"Brandford Harbor, USA","Célia Gosset",2009,"NucleoMag_tissue","kasp_2",,,,,,"Simon, A., Arbiol, C., Nielsen, E. E., Couteau, J., Sussarellu, R., Burgeot, T., … Bierne, N. (2019). Replicated anthropogenic hybridisations reveal parallel patterns of admixture in marine mussels. BioRxiv. https://doi.org/10.1101/590737"
"BIA_001",43.467448,-1.576547,"Digue de Marbella, Biarritz, France","MORBLEU","2016-12-14","NucleoMag_tissue","kasp_3",,,,,"prélèvement moules dans le cadre de 100 familles.  Moule caché dans l'enrochement de la digue. Quelle espèce Edulis et ou Gallo?? prélèvement le 14 décembre 2016.","Pepin Jean-Francois, Benabdelmouna Abdellah, Bierne Nicolas, Costes Louis, Degremont Lionel, Garcia Celine, Guesdon Stephane, Lamy Jean-Baptiste, Le Moine Olivier, Morga Benjamin, Normand Julien, Robert Stephane, Saunier Alice, Soletchnik Patrick, Travers Marie-Agnes (2018). Mortalités de moules bleues dans les secteurs mytilicoles : description et étude des facteurs liés, action –MORBLEU-2017. R.INT.RBE/SG2M-LGPMM-2018. https://archimer.ifremer.fr/doc/00503/61503/"
"BIL_001",47.445281,-2.490151,"Le Bile - Penestin, France","MORBLEU","2017-01-11","NucleoMag_tissue","kasp_3",,,,,"POINTE DU BILE (Pénestin environement site Mytilobs Pont Mahé). On observes des moules d’un niveau 50 à un niveau 80 (coef de marée) avec un détail d’importance qui a également été observé sur le site du Pouliquen. Les moules situées au niveau supérieur sont les plus vieilles et les plus grosses ce sont celles qui ont été prélevées pour « 100 FAMILLES » elles sont couvertes de bernacles.  Au niveau inférieur 70-80 on n'observe plus de grosses moules mais seulement des petites -captage 2016- qui n’est pas bien gros DES MOULES DE CE NIVEAU ONT ETE PRELEVEES POUR ABDELLAH (caractérisation cytogénétique), ELLES SONT MELANGER AVEC LES AUTRES A TRIER. On observe sur ce sites de très nombreux perceurs Nucella lapilus qui peuvent impacter le site par leur prédation, mais pas faire disparaître les moules de plus de 2 ans.  Prélèvement Strobert le 11/01/2017.","Simon, A., Arbiol, C., Nielsen, E. E., Couteau, J., Sussarellu, R., Burgeot, T., … Bierne, N. (2019). Replicated anthropogenic hybridisations reveal parallel patterns of admixture in marine mussels. BioRxiv. https://doi.org/10.1101/590737"
"BIL1",43.35194,-3.081244,"Zierbena, Bilbao harbor, Spain","Ibon Cancio","2017-07-17","NucleoMag_tissue","kasp_3",,,,,"Inner site of Zierbena harbour. The old fishing sports harbour of Zirebena has been completely engulfed within the outer site of the superharbour. Mussels were small, bellow 2,5 cm. Not easy to extract enough hemolymph","Simon, A., Arbiol, C., Nielsen, E. E., Couteau, J., Sussarellu, R., Burgeot, T., … Bierne, N. (2019). Replicated anthropogenic hybridisations reveal parallel patterns of admixture in marine mussels. BioRxiv. https://doi.org/10.1101/590737"
"BIL2",43.352619,-3.079388,"Zierbena, Bilbao harbor, Spain","Ibon Cancio","2017-07-17","NucleoMag_tissue","kasp_3",,,,,"Outer site of Zierbena harbour. Mussels were small, bellow 2,5 cm. Not easy to extract enough hemolymph","Simon, A., Arbiol, C., Nielsen, E. E., Couteau, J., Sussarellu, R., Burgeot, T., … Bierne, N. (2019). Replicated anthropogenic hybridisations reveal parallel patterns of admixture in marine mussels. BioRxiv. https://doi.org/10.1101/590737"
"BIL3",43.330654,-3.030497,"Santurtzi, Bilbao harbor, Spain","Ibon Cancio","2017-07-17","NucleoMag_tissue","kasp_3",,,,,"Inisde the fishing old harbour of Sanurtiz, somehow more portected form the open ocean and the superharbour area than site 4.","Simon, A., Arbiol, C., Nielsen, E. E., Couteau, J., Sussarellu, R., Burgeot, T., … Bierne, N. (2019). Replicated anthropogenic hybridisations reveal parallel patterns of admixture in marine mussels. BioRxiv. https://doi.org/10.1101/590737"
"BIL4",43.330435,-3.029756,"Santurtzi, Bilbao harbor, Spain","Ibon Cancio","2017-07-17","NucleoMag_tissue","kasp_3",,,,,"Mussels were colected in the site of the Santurtzi harbour (traditional fisherman harbour) facing the sea and the big superharbour area. It is placed right next to the Zamakona ship buidling yard.","Simon, A., Arbiol, C., Nielsen, E. E., Couteau, J., Sussarellu, R., Burgeot, T., … Bierne, N. (2019). Replicated anthropogenic hybridisations reveal parallel patterns of admixture in marine mussels. BioRxiv. https://doi.org/10.1101/590737"
"BIL5",43.325567,-3.020627,"Portugalete, Bilbao harbor, Spain","Ibon Cancio","2017-07-17","NucleoMag_tissue","kasp_3",,,,,"Portugalete is right in the opeening of the estuary. Colected mussels were above 3,5 cm.","Simon, A., Arbiol, C., Nielsen, E. E., Couteau, J., Sussarellu, R., Burgeot, T., … Bierne, N. (2019). Replicated anthropogenic hybridisations reveal parallel patterns of admixture in marine mussels. BioRxiv. https://doi.org/10.1101/590737"
"BIL6",43.33165,-3.013022,"Getxo, Bilbao harbor, Spain","Ibon Cancio","2017-07-20","NucleoMag_tissue","kasp_3",,,,,"In this site Xenostrobus has been identified. Mussels receive all the influence of the plume of the Bilbao estuary. Mussels above 4,5 cm were collected to avoid collecting Xenostrobus. The site is by the marina of Getxo.","Simon, A., Arbiol, C., Nielsen, E. E., Couteau, J., Sussarellu, R., Burgeot, T., … Bierne, N. (2019). Replicated anthropogenic hybridisations reveal parallel patterns of admixture in marine mussels. BioRxiv. https://doi.org/10.1101/590737"
"BIL7",43.341866,-3.027535,"Getxo, Bilbao harbor, Spain","Ibon Cancio","2017-07-20","NucleoMag_tissue","kasp_3",,,,,"Anomals were collected at the end of the pier, right next to the brand new cruiser terminal In front of the amin opoerations of the Bilbao superharbour.","Simon, A., Arbiol, C., Nielsen, E. E., Couteau, J., Sussarellu, R., Burgeot, T., … Bierne, N. (2019). Replicated anthropogenic hybridisations reveal parallel patterns of admixture in marine mussels. BioRxiv. https://doi.org/10.1101/590737"
"Bizerte",37.26,9.86,"Bizerte, Tunisia","Tahani El Ayari",,"NucleoMag_tissue","kasp_3",,,,,"approximate coordinates","Simon, A., Arbiol, C., Nielsen, E. E., Couteau, J., Sussarellu, R., Burgeot, T., … Bierne, N. (2019). Replicated anthropogenic hybridisations reveal parallel patterns of admixture in marine mussels. BioRxiv. https://doi.org/10.1101/590737"
"BLYT",55.1258,-1.4983,"Blythe, North Sea","Joop Coolen","2014-11-14",,"kasp_3",,,,,"Harbour / Depth 0m","Simon, A., Arbiol, C., Nielsen, E. E., Couteau, J., Sussarellu, R., Burgeot, T., … Bierne, N. (2019). Replicated anthropogenic hybridisations reveal parallel patterns of admixture in marine mussels. BioRxiv. https://doi.org/10.1101/590737 & Coolen, J. W. P. (2017). North Sea reefs: Benthic biodiversity of artificial and rocky reefs in the southern North Sea (PhD thesis, Wageningen University). Retrieved from http://edepot.wur.nl/404837"
"BO",67.231864,14.614901,"Bodø, Saltstraumen, Norway","Petr Strelkov",2014,"NucleoMag_tissue","kasp_2 / kasp_3",,,,,,"unpublished"
"Bodo",67.218378,14.998571,"Bodø, Norway","Galice Hoarau","2016-11-16","NucleoMag_tissue","kasp_3 / kasp_3bis",,,,,"Bodø, Nordland, Norway","Simon, A., Arbiol, C., Nielsen, E. E., Couteau, J., Sussarellu, R., Burgeot, T., … Bierne, N. (2019). Replicated anthropogenic hybridisations reveal parallel patterns of admixture in marine mussels. BioRxiv. https://doi.org/10.1101/590737"
"Bost",42.36,-71.05,"Boston, USA","Célia Gosset",2009,"NucleoMag_tissue","kasp_2",,,,,"approximate coordinates","Simon, A., Arbiol, C., Nielsen, E. E., Couteau, J., Sussarellu, R., Burgeot, T., … Bierne, N. (2019). Replicated anthropogenic hybridisations reveal parallel patterns of admixture in marine mussels. BioRxiv. https://doi.org/10.1101/590737"
"Bouf",49.348017,-0.724683,"Le Bouffay, France","Julien Normand + CRC Normandie",2015,"NucleoMag_tissue","kasp_1",,,,,,"Simon, A., Arbiol, C., Nielsen, E. E., Couteau, J., Sussarellu, R., Burgeot, T., … Bierne, N. (2019). Replicated anthropogenic hybridisations reveal parallel patterns of admixture in marine mussels. BioRxiv. https://doi.org/10.1101/590737"
"BREST",,,"Brest, France","Erika Burioli",,"NucleoMag_tissue","kasp_3",,,,,,"unpublished"
"Brest-1",48.316686,-4.286279,"Lagonna Daoulas, France","Alexis Simon + Alison Gallet","2017-07-08","NucleoMag_tissue","kasp_3",,,,,"moules éparses sur un muret à la sortie d'un étang après un barrage","Simon, A., Arbiol, C., Nielsen, E. E., Couteau, J., Sussarellu, R., Burgeot, T., … Bierne, N. (2019). Replicated anthropogenic hybridisations reveal parallel patterns of admixture in marine mussels. BioRxiv. https://doi.org/10.1101/590737"
"Brest-10",48.275207,-4.587984,"Fishing dock, Camaret, France","Alexis Simon + Alison Gallet","2017-07-09","NucleoMag_tissue","kasp_3",,,,,"moules dans des résurgences d'eau/interstices de roche, très peu, taille moyenne","Simon, A., Arbiol, C., Nielsen, E. E., Couteau, J., Sussarellu, R., Burgeot, T., … Bierne, N. (2019). Replicated anthropogenic hybridisations reveal parallel patterns of admixture in marine mussels. BioRxiv. https://doi.org/10.1101/590737"
"Brest-11",48.279722,-4.597133,"Camaret marina, France","Alexis Simon + Alison Gallet","2017-07-09","NucleoMag_tissue","kasp_3",,,,,"moules prises sur les côtés des pontons, abondantes, taille grosse","Simon, A., Arbiol, C., Nielsen, E. E., Couteau, J., Sussarellu, R., Burgeot, T., … Bierne, N. (2019). Replicated anthropogenic hybridisations reveal parallel patterns of admixture in marine mussels. BioRxiv. https://doi.org/10.1101/590737"
"Brest-12",48.261525,-4.61044,"Veryac'h, France","Alexis Simon + Alison Gallet","2017-07-09","NucleoMag_tissue","kasp_3",,,,,"moules très peu abondantes, taille très petite","Simon, A., Arbiol, C., Nielsen, E. E., Couteau, J., Sussarellu, R., Burgeot, T., … Bierne, N. (2019). Replicated anthropogenic hybridisations reveal parallel patterns of admixture in marine mussels. BioRxiv. https://doi.org/10.1101/590737"
"Brest-13",48.223575,-4.49673,"Morgat marina, France","Alexis Simon + Alison Gallet","2017-07-09","NucleoMag_tissue","kasp_3",,,,,"moules prises sur les côtés des pontons, abondantes, taille grosse","Simon, A., Arbiol, C., Nielsen, E. E., Couteau, J., Sussarellu, R., Burgeot, T., … Bierne, N. (2019). Replicated anthropogenic hybridisations reveal parallel patterns of admixture in marine mussels. BioRxiv. https://doi.org/10.1101/590737"
"Brest-14",48.23806,-4.463427,"Postolonnec beach, France","Alexis Simon + Alison Gallet","2017-07-09","NucleoMag_tissue","kasp_3",,,,,"moules sur des blocs rocheux distribués le fond, très abondantes, taille moyenne","Simon, A., Arbiol, C., Nielsen, E. E., Couteau, J., Sussarellu, R., Burgeot, T., … Bierne, N. (2019). Replicated anthropogenic hybridisations reveal parallel patterns of admixture in marine mussels. BioRxiv. https://doi.org/10.1101/590737"
"Brest-15",48.3379,-4.369133,"Porz Tinduff, France","Alexis Simon","2017-07-24","NucleoMag_tissue","kasp_3",,,,,"petites à moyennes, éparses, parmis les huitres","Simon, A., Arbiol, C., Nielsen, E. E., Couteau, J., Sussarellu, R., Burgeot, T., … Bierne, N. (2019). Replicated anthropogenic hybridisations reveal parallel patterns of admixture in marine mussels. BioRxiv. https://doi.org/10.1101/590737"
"Brest-16",48.336583,-4.413974,"Lauberlac'h, France","Alexis Simon","2017-07-24","NucleoMag_tissue","kasp_3",,,,,"moyennes et grosses, sur la jetée, éparses, parmis les huitres.","Simon, A., Arbiol, C., Nielsen, E. E., Couteau, J., Sussarellu, R., Burgeot, T., … Bierne, N. (2019). Replicated anthropogenic hybridisations reveal parallel patterns of admixture in marine mussels. BioRxiv. https://doi.org/10.1101/590737"
"Brest-17",48.3437,-4.44185,"Anse du Caro, France","Alexis Simon","2017-07-24","NucleoMag_tissue","kasp_3",,,,,"Peu de moules, petites, éparses, dans des creux et failles.","Simon, A., Arbiol, C., Nielsen, E. E., Couteau, J., Sussarellu, R., Burgeot, T., … Bierne, N. (2019). Replicated anthropogenic hybridisations reveal parallel patterns of admixture in marine mussels. BioRxiv. https://doi.org/10.1101/590737"
"Brest-18",48.35935,-4.437233,"Pointe Marloux, France","Alexis Simon","2017-07-24","NucleoMag_tissue","kasp_3",,,,,"très peu de moules, essentiellement naissain, très éparses.","Simon, A., Arbiol, C., Nielsen, E. E., Couteau, J., Sussarellu, R., Burgeot, T., … Bierne, N. (2019). Replicated anthropogenic hybridisations reveal parallel patterns of admixture in marine mussels. BioRxiv. https://doi.org/10.1101/590737"
"Brest-19",48.393133,-4.430667,"Marina Moulin Blanc Nord, France","Alexis Simon","2017-07-24","NucleoMag_tissue","kasp_3",,,,,"Très grosses, non abondantes, prélevées le long du ponton H.","Simon, A., Arbiol, C., Nielsen, E. E., Couteau, J., Sussarellu, R., Burgeot, T., … Bierne, N. (2019). Replicated anthropogenic hybridisations reveal parallel patterns of admixture in marine mussels. BioRxiv. https://doi.org/10.1101/590737"
"Brest-2",48.293339,-4.453667,"Lanvéoc, France","Alexis Simon + Alison Gallet","2017-07-08","NucleoMag_tissue","kasp_3",,,,,"moules uniquement sur les piliers cylindriques, abondantes, taille grosse","Simon, A., Arbiol, C., Nielsen, E. E., Couteau, J., Sussarellu, R., Burgeot, T., … Bierne, N. (2019). Replicated anthropogenic hybridisations reveal parallel patterns of admixture in marine mussels. BioRxiv. https://doi.org/10.1101/590737"
"Brest-20",48.390017,-4.432483,"Marina Moulin Blanc Sud, France","Alexis Simon","2017-07-24","NucleoMag_tissue","kasp_3",,,,,"Très grosses, non abondantes, prélevées sur les pontons A, B et C.","Simon, A., Arbiol, C., Nielsen, E. E., Couteau, J., Sussarellu, R., Burgeot, T., … Bierne, N. (2019). Replicated anthropogenic hybridisations reveal parallel patterns of admixture in marine mussels. BioRxiv. https://doi.org/10.1101/590737"
"Brest-21",48.379945,-4.47392,"Brest commerce A, France","Alexis Simon + SMO Roscoff","2017-07-25","NucleoMag_tissue","kasp_3",,,,,"Quai 5 Est, point externe","Simon, A., Arbiol, C., Nielsen, E. E., Couteau, J., Sussarellu, R., Burgeot, T., … Bierne, N. (2019). Replicated anthropogenic hybridisations reveal parallel patterns of admixture in marine mussels. BioRxiv. https://doi.org/10.1101/590737"
"Brest-22",48.382805,-4.473206,"Brest commerce B, France","Alexis Simon + SMO Roscoff","2017-07-25","NucleoMag_tissue","kasp_3",,,,,"Quai 5 Est, point interne","Simon, A., Arbiol, C., Nielsen, E. E., Couteau, J., Sussarellu, R., Burgeot, T., … Bierne, N. (2019). Replicated anthropogenic hybridisations reveal parallel patterns of admixture in marine mussels. BioRxiv. https://doi.org/10.1101/590737"
"Brest-23",48.377616,-4.4811,"Brest commerce C, France","Alexis Simon + SMO Roscoff","2017-07-25","NucleoMag_tissue","kasp_3",,,,,"1er pilier Ouest","Simon, A., Arbiol, C., Nielsen, E. E., Couteau, J., Sussarellu, R., Burgeot, T., … Bierne, N. (2019). Replicated anthropogenic hybridisations reveal parallel patterns of admixture in marine mussels. BioRxiv. https://doi.org/10.1101/590737"
"Brest-24",48.32235,-4.453483,"Pointe de l'Armorique, France","Alexis Simon + SMO Roscoff","2017-07-25","NucleoMag_tissue","kasp_3",,,,,"Ducs-d'Albes","Simon, A., Arbiol, C., Nielsen, E. E., Couteau, J., Sussarellu, R., Burgeot, T., … Bierne, N. (2019). Replicated anthropogenic hybridisations reveal parallel patterns of admixture in marine mussels. BioRxiv. https://doi.org/10.1101/590737"
"Brest-25",48.359449,-4.551021,"Anse de Sainte-Anne, France","Alexis Simon + SMO Roscoff","2017-07-25","NucleoMag_tissue","kasp_3",,,,,"Ponton IFREMER, pilier Nord","Simon, A., Arbiol, C., Nielsen, E. E., Couteau, J., Sussarellu, R., Burgeot, T., … Bierne, N. (2019). Replicated anthropogenic hybridisations reveal parallel patterns of admixture in marine mussels. BioRxiv. https://doi.org/10.1101/590737"
"Brest-26",48.360117,-4.529233,"Pointe du Porzic Est, France","Alexis Simon + SMO Roscoff","2017-07-25","NucleoMag_tissue","kasp_3",,,,,"Sur bouée","Simon, A., Arbiol, C., Nielsen, E. E., Couteau, J., Sussarellu, R., Burgeot, T., … Bierne, N. (2019). Replicated anthropogenic hybridisations reveal parallel patterns of admixture in marine mussels. BioRxiv. https://doi.org/10.1101/590737"
"Brest-27",48.377317,-4.490933,"Marina du Chateau A, France","Alexis Simon + SMO Roscoff","2017-07-25","NucleoMag_tissue","kasp_3",,,,,"Proche sortie, sous la digue (creuse), en grand nombre.","Simon, A., Arbiol, C., Nielsen, E. E., Couteau, J., Sussarellu, R., Burgeot, T., … Bierne, N. (2019). Replicated anthropogenic hybridisations reveal parallel patterns of admixture in marine mussels. BioRxiv. https://doi.org/10.1101/590737"
"Brest-28",48.380183,-4.488917,"Marina du Chateau B, France","Alexis Simon + SMO Roscoff","2017-07-25","NucleoMag_tissue","kasp_3",,,,,"Fond du port, sur ponton.","Simon, A., Arbiol, C., Nielsen, E. E., Couteau, J., Sussarellu, R., Burgeot, T., … Bierne, N. (2019). Replicated anthropogenic hybridisations reveal parallel patterns of admixture in marine mussels. BioRxiv. https://doi.org/10.1101/590737"
"Brest-29",48.374702,-4.455849,"Brest commerce D, France","Alexis Simon + SMO Roscoff","2017-07-25","NucleoMag_tissue","kasp_3",,,,,"Bouée cardinale sud, vers l'entrée du port de commerce.","Simon, A., Arbiol, C., Nielsen, E. E., Couteau, J., Sussarellu, R., Burgeot, T., … Bierne, N. (2019). Replicated anthropogenic hybridisations reveal parallel patterns of admixture in marine mussels. BioRxiv. https://doi.org/10.1101/590737"
"Brest-3",48.284442,-4.50891,"Le Fret, France","Alexis Simon + Alison Gallet","2017-07-08","NucleoMag_tissue","kasp_3",,,,,"moules à la sortie de l'étang du Fret, taille moyenne","Simon, A., Arbiol, C., Nielsen, E. E., Couteau, J., Sussarellu, R., Burgeot, T., … Bierne, N. (2019). Replicated anthropogenic hybridisations reveal parallel patterns of admixture in marine mussels. BioRxiv. https://doi.org/10.1101/590737"
"Brest-30",48.359043,-4.781042,"Le Conquet, France","Alexis Simon","2017-07-27","NucleoMag_tissue","kasp_3",,,,,"Rampe SNSM, taille moyennes à grosses, petite pop en grappe.","Simon, A., Arbiol, C., Nielsen, E. E., Couteau, J., Sussarellu, R., Burgeot, T., … Bierne, N. (2019). Replicated anthropogenic hybridisations reveal parallel patterns of admixture in marine mussels. BioRxiv. https://doi.org/10.1101/590737"
"Brest-31",48.343054,-4.77214,"Penzer, France","Alexis Simon","2017-07-27","NucleoMag_tissue","kasp_3",,,,,"Roche milieu de plage, grand quantité, taille moyenne (type exposé)","Simon, A., Arbiol, C., Nielsen, E. E., Couteau, J., Sussarellu, R., Burgeot, T., … Bierne, N. (2019). Replicated anthropogenic hybridisations reveal parallel patterns of admixture in marine mussels. BioRxiv. https://doi.org/10.1101/590737"
"Brest-32",48.328467,-4.7682,"Pointe Saint-Mathieu, France","Alexis Simon","2017-07-27","NucleoMag_tissue","kasp_3",,,,,"Type exposé, éparses.","Simon, A., Arbiol, C., Nielsen, E. E., Couteau, J., Sussarellu, R., Burgeot, T., … Bierne, N. (2019). Replicated anthropogenic hybridisations reveal parallel patterns of admixture in marine mussels. BioRxiv. https://doi.org/10.1101/590737"
"Brest-33",48.338883,-4.69895,"Plougonvelin, France","Alexis Simon","2017-07-27","NucleoMag_tissue","kasp_3",,,,,"Type exposé, éparses.","Simon, A., Arbiol, C., Nielsen, E. E., Couteau, J., Sussarellu, R., Burgeot, T., … Bierne, N. (2019). Replicated anthropogenic hybridisations reveal parallel patterns of admixture in marine mussels. BioRxiv. https://doi.org/10.1101/590737"
"Brest-34",48.337583,-4.615383,"Petit Minou, France","Alexis Simon","2017-07-27","NucleoMag_tissue","kasp_3",,,,,"Très grosse population s'étendant sur toute la face Ouest de la pointe du Petit Minou, type exposé.","Simon, A., Arbiol, C., Nielsen, E. E., Couteau, J., Sussarellu, R., Burgeot, T., … Bierne, N. (2019). Replicated anthropogenic hybridisations reveal parallel patterns of admixture in marine mussels. BioRxiv. https://doi.org/10.1101/590737"
"Brest-35",48.34809,-4.58137,"Le Mengant, France","Alexis Simon","2017-07-27","NucleoMag_tissue","kasp_3",,,,,"Type exposé, éparses, au niveau d'une ruine de rampe en contrebas du santier côtier, à l'Est du fort du Mengant.","Simon, A., Arbiol, C., Nielsen, E. E., Couteau, J., Sussarellu, R., Burgeot, T., … Bierne, N. (2019). Replicated anthropogenic hybridisations reveal parallel patterns of admixture in marine mussels. BioRxiv. https://doi.org/10.1101/590737"
"Brest-36",48.279823,-4.268145,"Térénez, France","Alexis Simon + Alison Gallet","2017-08-05","NucleoMag_tissue","kasp_3",,,,,"Peu abondandes, sur piliers ponton, entre les huitres.","Simon, A., Arbiol, C., Nielsen, E. E., Couteau, J., Sussarellu, R., Burgeot, T., … Bierne, N. (2019). Replicated anthropogenic hybridisations reveal parallel patterns of admixture in marine mussels. BioRxiv. https://doi.org/10.1101/590737"
"Brest-37",48.200699,-4.514774,"île Vierge, France","Alexis Simon + Alison Gallet","2017-08-06","NucleoMag_tissue","kasp_3",,,,,"Très abondantes, petite taille type exposé.","Simon, A., Arbiol, C., Nielsen, E. E., Couteau, J., Sussarellu, R., Burgeot, T., … Bierne, N. (2019). Replicated anthropogenic hybridisations reveal parallel patterns of admixture in marine mussels. BioRxiv. https://doi.org/10.1101/590737"
"Brest-38",48.40575,-4.340483,"Elorn 2, France","SMO Roscoff","2017-09-21","NucleoMag_tissue","kasp_3",,,,,"Densité très faible","Simon, A., Arbiol, C., Nielsen, E. E., Couteau, J., Sussarellu, R., Burgeot, T., … Bierne, N. (2019). Replicated anthropogenic hybridisations reveal parallel patterns of admixture in marine mussels. BioRxiv. https://doi.org/10.1101/590737"
"Brest-39",48.405817,-4.343167,"Elorn 2B, France","SMO Roscoff","2017-09-21","NucleoMag_tissue","kasp_3",,,,,"Espar Bâbord, Echelle de Marée / faible","Simon, A., Arbiol, C., Nielsen, E. E., Couteau, J., Sussarellu, R., Burgeot, T., … Bierne, N. (2019). Replicated anthropogenic hybridisations reveal parallel patterns of admixture in marine mussels. BioRxiv. https://doi.org/10.1101/590737"
"Brest-4",48.291942,-4.539967,"L'île du Renard, France","Alexis Simon + Alison Gallet","2017-07-08","NucleoMag_tissue","kasp_3",,,,,"moules sur l'estran, dans des failles de rochers, taille petite","Simon, A., Arbiol, C., Nielsen, E. E., Couteau, J., Sussarellu, R., Burgeot, T., … Bierne, N. (2019). Replicated anthropogenic hybridisations reveal parallel patterns of admixture in marine mussels. BioRxiv. https://doi.org/10.1101/590737"
"Brest-40",48.40385,-4.348983,"Elorn St Jean, France","SMO Roscoff","2017-09-21","NucleoMag_tissue","kasp_3",,,,,"Bouée d’origine de chenal remplacée par une jaune / dense","Simon, A., Arbiol, C., Nielsen, E. E., Couteau, J., Sussarellu, R., Burgeot, T., … Bierne, N. (2019). Replicated anthropogenic hybridisations reveal parallel patterns of admixture in marine mussels. BioRxiv. https://doi.org/10.1101/590737"
"Brest-41",48.406483,-4.356117,"Elorn 3, France","SMO Roscoff","2017-09-21","NucleoMag_tissue","kasp_3",,,,,"Faible","Simon, A., Arbiol, C., Nielsen, E. E., Couteau, J., Sussarellu, R., Burgeot, T., … Bierne, N. (2019). Replicated anthropogenic hybridisations reveal parallel patterns of admixture in marine mussels. BioRxiv. https://doi.org/10.1101/590737"
"Brest-42",48.39705,-4.372083,"Elorn 6, France","SMO Roscoff","2017-09-21","NucleoMag_tissue","kasp_3",,,,,"Dense","Simon, A., Arbiol, C., Nielsen, E. E., Couteau, J., Sussarellu, R., Burgeot, T., … Bierne, N. (2019). Replicated anthropogenic hybridisations reveal parallel patterns of admixture in marine mussels. BioRxiv. https://doi.org/10.1101/590737"
"Brest-43",48.395533,-4.3828,"Elorn 9, France","SMO Roscoff","2017-09-21","NucleoMag_tissue","kasp_3",,,,,"Roche / faible","Simon, A., Arbiol, C., Nielsen, E. E., Couteau, J., Sussarellu, R., Burgeot, T., … Bierne, N. (2019). Replicated anthropogenic hybridisations reveal parallel patterns of admixture in marine mussels. BioRxiv. https://doi.org/10.1101/590737"
"Brest-44",48.393,-4.38205,"Elorn 11, France","SMO Roscoff","2017-09-21","NucleoMag_tissue","kasp_3",,,,,"Ancienne cale ouest / moyenne","Simon, A., Arbiol, C., Nielsen, E. E., Couteau, J., Sussarellu, R., Burgeot, T., … Bierne, N. (2019). Replicated anthropogenic hybridisations reveal parallel patterns of admixture in marine mussels. BioRxiv. https://doi.org/10.1101/590737"
"Brest-45",48.392983,-4.3867,"Elorn 14, France","SMO Roscoff","2017-09-21","NucleoMag_tissue","kasp_3",,,,,"Dense","Simon, A., Arbiol, C., Nielsen, E. E., Couteau, J., Sussarellu, R., Burgeot, T., … Bierne, N. (2019). Replicated anthropogenic hybridisations reveal parallel patterns of admixture in marine mussels. BioRxiv. https://doi.org/10.1101/590737"
"Brest-46",48.390283,-4.39465,"Elorn 15, France","SMO Roscoff","2017-09-21","NucleoMag_tissue","kasp_3",,,,,"Dense","Simon, A., Arbiol, C., Nielsen, E. E., Couteau, J., Sussarellu, R., Burgeot, T., … Bierne, N. (2019). Replicated anthropogenic hybridisations reveal parallel patterns of admixture in marine mussels. BioRxiv. https://doi.org/10.1101/590737"
"Brest-5",48.3146,-4.545065,"Roscanvel, France","Alexis Simon + Alison Gallet","2017-07-08","NucleoMag_tissue","kasp_3",,,,,"slipway, moules sur zone rocheuse, taille petite","Simon, A., Arbiol, C., Nielsen, E. E., Couteau, J., Sussarellu, R., Burgeot, T., … Bierne, N. (2019). Replicated anthropogenic hybridisations reveal parallel patterns of admixture in marine mussels. BioRxiv. https://doi.org/10.1101/590737"
"Brest-6",48.307103,-4.572997,"La Fraternité, France","Alexis Simon + Alison Gallet","2017-07-08","NucleoMag_tissue","kasp_3",,,,,"moules sur/entre des blocs rocheux sur le fond, taille moyenne","Simon, A., Arbiol, C., Nielsen, E. E., Couteau, J., Sussarellu, R., Burgeot, T., … Bierne, N. (2019). Replicated anthropogenic hybridisations reveal parallel patterns of admixture in marine mussels. BioRxiv. https://doi.org/10.1101/590737"
"Brest-7",48.296583,-4.554522,"Quelern, France","Alexis Simon + Alison Gallet","2017-07-09","NucleoMag_tissue","kasp_3",,,,,"slipway, moules sur des blocs rocheux et muret à la sortie d'un étang, taille moyenne","Simon, A., Arbiol, C., Nielsen, E. E., Couteau, J., Sussarellu, R., Burgeot, T., … Bierne, N. (2019). Replicated anthropogenic hybridisations reveal parallel patterns of admixture in marine mussels. BioRxiv. https://doi.org/10.1101/590737"
"Brest-8",48.339737,-4.532071,"Pointe des Espagnols, France","Alexis Simon + Alison Gallet","2017-07-09","NucleoMag_tissue","kasp_3",,,,,"moules uniquement sur les piliers, taille grosse / juvéniles présents / 01 = juvénile, reste = grosses","Simon, A., Arbiol, C., Nielsen, E. E., Couteau, J., Sussarellu, R., Burgeot, T., … Bierne, N. (2019). Replicated anthropogenic hybridisations reveal parallel patterns of admixture in marine mussels. BioRxiv. https://doi.org/10.1101/590737"
"Brest-9",48.318344,-4.582539,"Îlot des Capucins, France","Alexis Simon + Alison Gallet","2017-07-09","NucleoMag_tissue","kasp_3",,,,,"moules sur des blocs rocheux, abondantes, taille petite. Pouces pieds présents en nombre important.","Simon, A., Arbiol, C., Nielsen, E. E., Couteau, J., Sussarellu, R., Burgeot, T., … Bierne, N. (2019). Replicated anthropogenic hybridisations reveal parallel patterns of admixture in marine mussels. BioRxiv. https://doi.org/10.1101/590737"
"BretN_g1",48.700138,-3.71707,"venizella, Guimaec, France","Ismaël Bernard (Eureka)","2016-05-24","NucleoMag_tissue","kasp_2",,,,,"près de Beg an Fry","Simon, A., Arbiol, C., Nielsen, E. E., Couteau, J., Sussarellu, R., Burgeot, T., … Bierne, N. (2019). Replicated anthropogenic hybridisations reveal parallel patterns of admixture in marine mussels. BioRxiv. https://doi.org/10.1101/590737"
"BretN_g2",48.689997,-3.698187,"poul roudou, Locquirec, France","Ismaël Bernard (Eureka)","2016-05-24","NucleoMag_tissue","kasp_2",,,,,,"Simon, A., Arbiol, C., Nielsen, E. E., Couteau, J., Sussarellu, R., Burgeot, T., … Bierne, N. (2019). Replicated anthropogenic hybridisations reveal parallel patterns of admixture in marine mussels. BioRxiv. https://doi.org/10.1101/590737"
"BretN_g3",48.687957,-3.676901,"lezingar, Locquirec, France","Ismaël Bernard (Eureka)","2016-05-24","NucleoMag_tissue","kasp_2",,,,,,"Simon, A., Arbiol, C., Nielsen, E. E., Couteau, J., Sussarellu, R., Burgeot, T., … Bierne, N. (2019). Replicated anthropogenic hybridisations reveal parallel patterns of admixture in marine mussels. BioRxiv. https://doi.org/10.1101/590737"
"BretN_g4",48.694813,-3.646431,"pors ar villiec, Locquirec","Ismaël Bernard (Eureka)","2016-05-24","NucleoMag_tissue","kasp_2",,,,,,"Simon, A., Arbiol, C., Nielsen, E. E., Couteau, J., Sussarellu, R., Burgeot, T., … Bierne, N. (2019). Replicated anthropogenic hybridisations reveal parallel patterns of admixture in marine mussels. BioRxiv. https://doi.org/10.1101/590737"
"BretN_i1",48.728634,-3.546384,"Léguer estuary, South point, France","Ismaël Bernard (Eureka)","2016-05-24","NucleoMag_tissue","kasp_2",,,,,,"Simon, A., Arbiol, C., Nielsen, E. E., Couteau, J., Sussarellu, R., Burgeot, T., … Bierne, N. (2019). Replicated anthropogenic hybridisations reveal parallel patterns of admixture in marine mussels. BioRxiv. https://doi.org/10.1101/590737"
"BretN_i2",48.728948,-3.542295,"Banc du Guer sud, France","Ismaël Bernard (Eureka)","2016-05-24","NucleoMag_tissue","kasp_2",,,,,,"Simon, A., Arbiol, C., Nielsen, E. E., Couteau, J., Sussarellu, R., Burgeot, T., … Bierne, N. (2019). Replicated anthropogenic hybridisations reveal parallel patterns of admixture in marine mussels. BioRxiv. https://doi.org/10.1101/590737"
"BretN_i3",48.721388,-3.581562,"Locquémo, France","Ismaël Bernard (Eureka)","2016-05-24","NucleoMag_tissue","kasp_2",,,,,"Coopérative maritime","Simon, A., Arbiol, C., Nielsen, E. E., Couteau, J., Sussarellu, R., Burgeot, T., … Bierne, N. (2019). Replicated anthropogenic hybridisations reveal parallel patterns of admixture in marine mussels. BioRxiv. https://doi.org/10.1101/590737"
"BretN_i4",48.726078,-3.583713,"Locquemo, France","Ismaël Bernard (Eureka)","2016-05-24","NucleoMag_tissue","kasp_2",,,,,"Pointe du port","Simon, A., Arbiol, C., Nielsen, E. E., Couteau, J., Sussarellu, R., Burgeot, T., … Bierne, N. (2019). Replicated anthropogenic hybridisations reveal parallel patterns of admixture in marine mussels. BioRxiv. https://doi.org/10.1101/590737"
"BretN_i5q1",48.688861,-3.582827,"Beg ar form, Saint-Michel en Grève, France","Ismaël Bernard (Eureka)","2016-05-24","NucleoMag_tissue","kasp_2",,,,,,"Simon, A., Arbiol, C., Nielsen, E. E., Couteau, J., Sussarellu, R., Burgeot, T., … Bierne, N. (2019). Replicated anthropogenic hybridisations reveal parallel patterns of admixture in marine mussels. BioRxiv. https://doi.org/10.1101/590737"
"BretN_i5q2",48.689137,-3.582707,"Beg ar form, Saint-Michel en Grève, France","Ismaël Bernard (Eureka)","2016-05-24","NucleoMag_tissue","kasp_2",,,,,,"Simon, A., Arbiol, C., Nielsen, E. E., Couteau, J., Sussarellu, R., Burgeot, T., … Bierne, N. (2019). Replicated anthropogenic hybridisations reveal parallel patterns of admixture in marine mussels. BioRxiv. https://doi.org/10.1101/590737"
"BretN_i6",48.685065,-3.617125,"Beg Douar, Plestin Les Grèves, France","Ismaël Bernard (Eureka)","2016-05-24","NucleoMag_tissue","kasp_2",,,,,,"Simon, A., Arbiol, C., Nielsen, E. E., Couteau, J., Sussarellu, R., Burgeot, T., … Bierne, N. (2019). Replicated anthropogenic hybridisations reveal parallel patterns of admixture in marine mussels. BioRxiv. https://doi.org/10.1101/590737"
"BretN_i8",48.723045,-3.804249,"Roc'h Goalen, Plougasnou, France","Ismaël Bernard (Eureka)","2016-05-24","NucleoMag_tissue","kasp_2",,,,,,"Simon, A., Arbiol, C., Nielsen, E. E., Couteau, J., Sussarellu, R., Burgeot, T., … Bierne, N. (2019). Replicated anthropogenic hybridisations reveal parallel patterns of admixture in marine mussels. BioRxiv. https://doi.org/10.1101/590737"
"Brv",,,,"Abdellah",,,"kasp_3",,,,,,"unpublished"
"CAD",36.52719,-6.29842,"Cadix, Spain","Henrique Queiroga",2016,"NucleoMag_tissue","kasp_2",,,,,,"Simon, A., Arbiol, C., Nielsen, E. E., Couteau, J., Sussarellu, R., Burgeot, T., … Bierne, N. (2019). Replicated anthropogenic hybridisations reveal parallel patterns of admixture in marine mussels. BioRxiv. https://doi.org/10.1101/590737"
"Can",43.412263,3.691843,"Sète, canal, France","Nicolas Bierne",,"NucleoMag_tissue","kasp_1",,,,,,"Simon, A., Arbiol, C., Nielsen, E. E., Couteau, J., Sussarellu, R., Burgeot, T., … Bierne, N. (2019). Replicated anthropogenic hybridisations reveal parallel patterns of admixture in marine mussels. BioRxiv. https://doi.org/10.1101/590737"
"CAP",43.65525,-1.4454,"Capbreton West, France","Jérome Couteau (Toxem) + Rossana Sussarellu",2016,"NucleoMag_tissue","kasp_2",,,,,"ROCCH station 30, Q2 code 089-P-007","unpublished"
"Cart",49.37165,-1.808417,"Carteret, France","Julien Normand + CRC Normandie",2015,"NucleoMag_tissue","kasp_1",,,,,,"Simon, A., Arbiol, C., Nielsen, E. E., Couteau, J., Sussarellu, R., Burgeot, T., … Bierne, N. (2019). Replicated anthropogenic hybridisations reveal parallel patterns of admixture in marine mussels. BioRxiv. https://doi.org/10.1101/590737"
"CB",50.33204,-4.744566,"Carlyon Bay, SW England, UK","Angel P. Diz",,"NucleoMag_tissue","kasp_2",,,,,"approximate coordinates","Unpublished: Diz A.P., Simon A., Bierne N., Skibinski D.O.F."
"CER_001",48.38265,-4.448869,"Brest port, France","MORBLEU","2016-12-14","NucleoMag_tissue","kasp_3",,,,,"Prélèvement par un  coefficient de marée de 104  Prélevent au niveau du port céréalier","Simon, A., Arbiol, C., Nielsen, E. E., Couteau, J., Sussarellu, R., Burgeot, T., … Bierne, N. (2019). Replicated anthropogenic hybridisations reveal parallel patterns of admixture in marine mussels. BioRxiv. https://doi.org/10.1101/590737"
"CH",66.26998,33.07037,"Chupa, White Sea, Russia","Petr Strelkov",2015,"NucleoMag_tissue","kasp_2",,,,,,"unpublished"
"Cha",46.032285,-1.08059,"Charente, France",,,"NucleoMag_tissue","kasp_1",,,,,"approximate coordinates","Simon, A., Arbiol, C., Nielsen, E. E., Couteau, J., Sussarellu, R., Burgeot, T., … Bierne, N. (2019). Replicated anthropogenic hybridisations reveal parallel patterns of admixture in marine mussels. BioRxiv. https://doi.org/10.1101/590737"
"CHA_OLE",45.050357,-1.41515,"Chassiron, Oléron, France","MORBLEU","2016-10-03","NucleoMag_tissue","kasp_3",,,,,"prélèvement de naissain seulement, pointe Nord","Pepin Jean-Francois, Benabdelmouna Abdellah, Bierne Nicolas, Costes Louis, Degremont Lionel, Garcia Celine, Guesdon Stephane, Lamy Jean-Baptiste, Le Moine Olivier, Morga Benjamin, Normand Julien, Robert Stephane, Saunier Alice, Soletchnik Patrick, Travers Marie-Agnes (2018). Mortalités de moules bleues dans les secteurs mytilicoles : description et étude des facteurs liés, action –MORBLEU-2017. R.INT.RBE/SG2M-LGPMM-2018. https://archimer.ifremer.fr/doc/00503/61503/"
"Chausey",48.884236,-1.806773,"Chausey archipelago, France",,2009,"NucleoMag_tissue","kasp_3bis",,,,,"approximate coordinates, may be cultivated mussels","unpublished"
"CHE",47.232317,-2.29965,"Pointe de Chemoulin, France","Jérome Couteau (Toxem) + Rossana Sussarellu",2016,"NucleoMag_tissue","kasp_2",,,,,"ROCCH station 29, Q2 code 069-P-025","Simon, A., Arbiol, C., Nielsen, E. E., Couteau, J., Sussarellu, R., Burgeot, T., … Bierne, N. (2019). Replicated anthropogenic hybridisations reveal parallel patterns of admixture in marine mussels. BioRxiv. https://doi.org/10.1101/590737"
"CHE_001",49.645741,-1.623364,"Cherbourg, France","Julien Normand + CRC Normandie","2016-12-02","NucleoMag_tissue","kasp_3",,,,,"très grosses moules port de plaisance de  Cherbourg équipe port en Bessin","Simon, A., Arbiol, C., Nielsen, E. E., Couteau, J., Sussarellu, R., Burgeot, T., … Bierne, N. (2019). Replicated anthropogenic hybridisations reveal parallel patterns of admixture in marine mussels. BioRxiv. https://doi.org/10.1101/590737"
"Cher-A",49.6453,-1.61953,"Cherbourg A, France","Alexis Simon + Nicolas Bierne +  Alison Gallet ","2017-08-01","NucleoMag_tissue","kasp_3",,,,,"Ponton limite W Port Chantereyne.","Simon, A., Arbiol, C., Nielsen, E. E., Couteau, J., Sussarellu, R., Burgeot, T., … Bierne, N. (2019). Replicated anthropogenic hybridisations reveal parallel patterns of admixture in marine mussels. BioRxiv. https://doi.org/10.1101/590737"
"Cher-B",49.64956,-1.61981,"Cherbourg B, France","Alexis Simon + Nicolas Bierne +  Alison Gallet ","2017-08-01","NucleoMag_tissue","kasp_3",,,,,"Bouée limite port militaire.","Simon, A., Arbiol, C., Nielsen, E. E., Couteau, J., Sussarellu, R., Burgeot, T., … Bierne, N. (2019). Replicated anthropogenic hybridisations reveal parallel patterns of admixture in marine mussels. BioRxiv. https://doi.org/10.1101/590737"
"Cher-C",49.67307,-1.63244,"Cherbourg C, France","Alexis Simon + Nicolas Bierne +  Alison Gallet ","2017-08-01","NucleoMag_tissue","kasp_3",,,,,"Pisciculture grande rade.","Simon, A., Arbiol, C., Nielsen, E. E., Couteau, J., Sussarellu, R., Burgeot, T., … Bierne, N. (2019). Replicated anthropogenic hybridisations reveal parallel patterns of admixture in marine mussels. BioRxiv. https://doi.org/10.1101/590737"
"Cher-D",49.64818,-1.6202,"Cherbourg D, France","Alexis Simon + Nicolas Bierne +  Alison Gallet ","2017-08-01","NucleoMag_tissue","kasp_3",,,,,"Ponton NW Port Chantereyne.","Simon, A., Arbiol, C., Nielsen, E. E., Couteau, J., Sussarellu, R., Burgeot, T., … Bierne, N. (2019). Replicated anthropogenic hybridisations reveal parallel patterns of admixture in marine mussels. BioRxiv. https://doi.org/10.1101/590737"
"Cher-E",49.64208,-1.6208,"Cherbourg E, France","Alexis Simon + Nicolas Bierne +  Alison Gallet ","2017-08-01","NucleoMag_tissue","kasp_3",,,,,"Petit Bassin W dans Bassin la Divette.","Simon, A., Arbiol, C., Nielsen, E. E., Couteau, J., Sussarellu, R., Burgeot, T., … Bierne, N. (2019). Replicated anthropogenic hybridisations reveal parallel patterns of admixture in marine mussels. BioRxiv. https://doi.org/10.1101/590737"
"Cher-F",49.64566,-1.62342,"Cherbourg F, France","Alexis Simon + Nicolas Bierne +  Alison Gallet ","2017-08-01","NucleoMag_tissue","kasp_3",,,,,"Ponton carburant Port Chantereyne.","Simon, A., Arbiol, C., Nielsen, E. E., Couteau, J., Sussarellu, R., Burgeot, T., … Bierne, N. (2019). Replicated anthropogenic hybridisations reveal parallel patterns of admixture in marine mussels. BioRxiv. https://doi.org/10.1101/590737"
"Cher-G",49.63846,-1.61964,"Cherbourg G, France","Alexis Simon + Nicolas Bierne +  Alison Gallet ","2017-08-01","NucleoMag_tissue","kasp_3",,,,,"Ponton Bassin du Commerce.","Simon, A., Arbiol, C., Nielsen, E. E., Couteau, J., Sussarellu, R., Burgeot, T., … Bierne, N. (2019). Replicated anthropogenic hybridisations reveal parallel patterns of admixture in marine mussels. BioRxiv. https://doi.org/10.1101/590737"
"Cher03",49.63942,-1.61994,"Cherbourg, France","Nicolas Bierne",,"NucleoMag_tissue","kasp_1",,,,,,"Simon, A., Arbiol, C., Nielsen, E. E., Couteau, J., Sussarellu, R., Burgeot, T., … Bierne, N. (2019). Replicated anthropogenic hybridisations reveal parallel patterns of admixture in marine mussels. BioRxiv. https://doi.org/10.1101/590737"
"Cher15",49.645567,-1.623317,"Cherbourg, France","Julien Normand + CRC Normandie",2015,"NucleoMag_tissue","kasp_1",,,,,,"Simon, A., Arbiol, C., Nielsen, E. E., Couteau, J., Sussarellu, R., Burgeot, T., … Bierne, N. (2019). Replicated anthropogenic hybridisations reveal parallel patterns of admixture in marine mussels. BioRxiv. https://doi.org/10.1101/590737"
"Cher16",49.645567,-1.623317,"Cherbourg, France","Julien Normand + CRC Normandie",2016,"NucleoMag_tissue","kasp_1",,,,,,"Simon, A., Arbiol, C., Nielsen, E. E., Couteau, J., Sussarellu, R., Burgeot, T., … Bierne, N. (2019). Replicated anthropogenic hybridisations reveal parallel patterns of admixture in marine mussels. BioRxiv. https://doi.org/10.1101/590737"
"CHR",41.386917,-71.519167,"Charlestown, Snug Harbor Marina, USA","Célia Gosset",2009,"NucleoMag_tissue","kasp_2",,,,,,"Simon, A., Arbiol, C., Nielsen, E. E., Couteau, J., Sussarellu, R., Burgeot, T., … Bierne, N. (2019). Replicated anthropogenic hybridisations reveal parallel patterns of admixture in marine mussels. BioRxiv. https://doi.org/10.1101/590737"
"Collo",37,6.56,"Collo, Algeria",,,"NucleoMag_tissue","kasp_2",,,,,"approximate coordinates","unpublished"
"COR",43.37011,-8.41393,"Coruña, Galicia, Spain","Henrique Queiroga",2016,"NucleoMag_tissue","kasp_2",,,,,,"Simon, A., Arbiol, C., Nielsen, E. E., Couteau, J., Sussarellu, R., Burgeot, T., … Bierne, N. (2019). Replicated anthropogenic hybridisations reveal parallel patterns of admixture in marine mussels. BioRxiv. https://doi.org/10.1101/590737"
"CR",51.124105,-4.246137,"Croyde, SW ENgland, UK","Angel P. Diz",,"NucleoMag_tissue","kasp_2",,,,,"approximate coordinates","Unpublished: Diz A.P., Simon A., Bierne N., Skibinski D.O.F."
"CRE",38.48047,-8.9739,"Praia do Creio, Arrábida, Spain","Henrique Queiroga",2016,"NucleoMag_tissue","kasp_2",,,,,,"Simon, A., Arbiol, C., Nielsen, E. E., Couteau, J., Sussarellu, R., Burgeot, T., … Bierne, N. (2019). Replicated anthropogenic hybridisations reveal parallel patterns of admixture in marine mussels. BioRxiv. https://doi.org/10.1101/590737"
"CrimeaA",44.4952,33.5946,"Balaklava, Crimea","Petr Strelkov",,"NucleoMag_tissue","kasp_3",,,,,"Approximate coordinates","unpublished"
"CrimeaB",44.42073,34.059549,"Crimea","Petr Strelkov",,"NucleoMag_tissue","kasp_3",,,,,,"unpublished"
"CrimeaC",44.530556,33.455556,"Sevastopol, Crimean Peninsula","Petr Strelkov (colleagues of)","2018-09-22",,,,,,,"Crimean Peninsular, Sevastopol nudist beach","unpublished"
"Croa",45.071553,13.620913,"Croatia","Bojan Hamer",,"NucleoMag_tissue","kasp_1 / kasp_2",,,,,"approximate coordinates","Simon, A., Arbiol, C., Nielsen, E. E., Couteau, J., Sussarellu, R., Burgeot, T., … Bierne, N. (2019). Replicated anthropogenic hybridisations reveal parallel patterns of admixture in marine mussels. BioRxiv. https://doi.org/10.1101/590737"
"D15A",54.3247,2.9346,"D15-A, North Sea","Joop Coolen","2015-10-03",,"kasp_3",,,,,"O&G platform / Depth 7m","Simon, A., Arbiol, C., Nielsen, E. E., Couteau, J., Sussarellu, R., Burgeot, T., … Bierne, N. (2019). Replicated anthropogenic hybridisations reveal parallel patterns of admixture in marine mussels. BioRxiv. https://doi.org/10.1101/590737 & Coolen, J. W. P. (2017). North Sea reefs: Benthic biodiversity of artificial and rocky reefs in the southern North Sea (PhD thesis, Wageningen University). Retrieved from http://edepot.wur.nl/404837"
"DAR",44.63521,-63.550052,"Dartmouth, Canada","Angel P. Diz",,"NucleoMag_tissue","kasp_2",,,,,"approximate coordinates","Unpublished: Diz A.P., Simon A., Bierne N., Skibinski D.O.F."
"Dieppe",49.935556,1.096703,"Dieppe, France","Claire Daguin-Thiebaut",,"NucleoMag_tissue","kasp_1 / kasp_3bis",,,,,,"Simon, A., Arbiol, C., Nielsen, E. E., Couteau, J., Sussarellu, R., Burgeot, T., … Bierne, N. (2019). Replicated anthropogenic hybridisations reveal parallel patterns of admixture in marine mussels. BioRxiv. https://doi.org/10.1101/590737"
"Din",48.639134,-2.049374,"Dinard, France",,,"NucleoMag_tissue","kasp_1",,,,,"approximate coordinates","Simon, A., Arbiol, C., Nielsen, E. E., Couteau, J., Sussarellu, R., Burgeot, T., … Bierne, N. (2019). Replicated anthropogenic hybridisations reveal parallel patterns of admixture in marine mussels. BioRxiv. https://doi.org/10.1101/590737"
"DKL",23.72,-15.93,"Dahkla, Morocco",,,"NucleoMag_tissue","kasp_3",,,,,"Approximate coordinates","Simon, A., Arbiol, C., Nielsen, E. E., Couteau, J., Sussarellu, R., Burgeot, T., … Bierne, N. (2019). Replicated anthropogenic hybridisations reveal parallel patterns of admixture in marine mussels. BioRxiv. https://doi.org/10.1101/590737"
"DO",45.851395,-60.803858,"Bras d'Or Lake, Canada","Angel P. Diz",,"NucleoMag_tissue","kasp_2",,,,,"approximate coordinates","Unpublished: Diz A.P., Simon A., Bierne N., Skibinski D.O.F."
"Dun",51.103133,2.421783,"Dunkerque, France","Julien Normand + CRC Normandie",2016,"NucleoMag_tissue","kasp_2",,,,,,"Simon, A., Arbiol, C., Nielsen, E. E., Couteau, J., Sussarellu, R., Burgeot, T., … Bierne, N. (2019). Replicated anthropogenic hybridisations reveal parallel patterns of admixture in marine mussels. BioRxiv. https://doi.org/10.1101/590737"
"EB",,,,"Erika Burioli",,"NucleoMag_tissue","kasp_3",,,,,,"unpublished"
"EB-cultNeo",,,"Cancer cell culture","Erika Burioli",,,"kasp_3bis",,,,,,"unpublished"
"Edi",55.981205,-3.195437,"Edinbourg, Scotland, UK","Christelle Fraïsse",2013,"NucleoMag_tissue","kasp_1",,,,,,"unpublished"
"Ena11",48.64035,-2.07507,"Saint-Enogat, Dinard, France",,,"NucleoMag_tissue","kasp_1",,,,,,"Simon, A., Arbiol, C., Nielsen, E. E., Couteau, J., Sussarellu, R., Burgeot, T., … Bierne, N. (2019). Replicated anthropogenic hybridisations reveal parallel patterns of admixture in marine mussels. BioRxiv. https://doi.org/10.1101/590737"
"Engl",49.394783,-0.933767,"Englesqueville, France","Julien Normand + CRC Normandie",2015,"NucleoMag_tissue","kasp_1",,,,,,"Simon, A., Arbiol, C., Nielsen, E. E., Couteau, J., Sussarellu, R., Burgeot, T., … Bierne, N. (2019). Replicated anthropogenic hybridisations reveal parallel patterns of admixture in marine mussels. BioRxiv. https://doi.org/10.1101/590737"
"ES",55.486617,8.404019,"Esbjerg, Denmark","Lasse Fast Jensen","2016-10-07","NucleoMag_tissue","kasp_2",,,,,,"unpublished"
"EST_001",47.3037,-2.5337,"Le Croisic, France","Jean-Baptiste Lamy",,"NucleoMag_tissue","kasp_3",,,,,,"Simon, A., Arbiol, C., Nielsen, E. E., Couteau, J., Sussarellu, R., Burgeot, T., … Bierne, N. (2019). Replicated anthropogenic hybridisations reveal parallel patterns of admixture in marine mussels. BioRxiv. https://doi.org/10.1101/590737"
"F_BIA_001",,,,"Jean-Baptiste Lamy",,"NucleoMag_tissue","kasp_3",,,,,,"unpublished"
"F_MOG_001",,,,"Jean-Baptiste Lamy",,"NucleoMag_tissue","kasp_3",,,,,,"unpublished"
"F_OLE_PON",,,,"Jean-Baptiste Lamy",,"NucleoMag_tissue","kasp_3",,,,,,"unpublished"
"F_WIM_001",,,,"Jean-Baptiste Lamy",,"NucleoMag_tissue","kasp_3",,,,,,"unpublished"
"F_YEU_001",,,,"Jean-Baptiste Lamy",,"NucleoMag_tissue","kasp_3",,,,,,"unpublished"
"F_YEU_002",,,,"Jean-Baptiste Lamy",,"NucleoMag_tissue","kasp_3",,,,,,"unpublished"
"F1",,,"F1","Nicolas Bierne",,"NucleoMag_tissue","kasp_1",,,,,,"Simon, A., Arbiol, C., Nielsen, E. E., Couteau, J., Sussarellu, R., Burgeot, T., … Bierne, N. (2019). Replicated anthropogenic hybridisations reveal parallel patterns of admixture in marine mussels. BioRxiv. https://doi.org/10.1101/590737"
"F2",,,"F2","Nicolas Bierne",,"NucleoMag_tissue","kasp_1",,,,,,"Simon, A., Arbiol, C., Nielsen, E. E., Couteau, J., Sussarellu, R., Burgeot, T., … Bierne, N. (2019). Replicated anthropogenic hybridisations reveal parallel patterns of admixture in marine mussels. BioRxiv. https://doi.org/10.1101/590737"
"Far",37.01568,-7.93884,"Faro, Portugal",,,"NucleoMag_tissue","kasp_1",,,,,"approximate coordinates","Simon, A., Arbiol, C., Nielsen, E. E., Couteau, J., Sussarellu, R., Burgeot, T., … Bierne, N. (2019). Replicated anthropogenic hybridisations reveal parallel patterns of admixture in marine mussels. BioRxiv. https://doi.org/10.1101/590737"
"FAR",37.01568,-7.93884,"Faro, Portugal","Henrique Queiroga",2016,"NucleoMag_tissue","kasp_2",,,,,,"Simon, A., Arbiol, C., Nielsen, E. E., Couteau, J., Sussarellu, R., Burgeot, T., … Bierne, N. (2019). Replicated anthropogenic hybridisations reveal parallel patterns of admixture in marine mussels. BioRxiv. https://doi.org/10.1101/590737"
"Fer11",48.720449,-3.963087,"ballast ferry","Frédérique Viard + SMO Roscoff",2011,"NucleoMag_tissue","kasp_1",,,,,"approximate coordinates","Simon, A., Arbiol, C., Nielsen, E. E., Couteau, J., Sussarellu, R., Burgeot, T., … Bierne, N. (2019). Replicated anthropogenic hybridisations reveal parallel patterns of admixture in marine mussels. BioRxiv. https://doi.org/10.1101/590737"
"Fer13",48.720449,-3.963087,"ballast ferry Armorique","Frédérique Viard + SMO Roscoff","2013-05-16","NucleoMag_tissue","kasp_1",,,,,"Ferry Armorique port Roscoff / tube étambot tribord / dive sampling / approximate coordinates","Simon, A., Arbiol, C., Nielsen, E. E., Couteau, J., Sussarellu, R., Burgeot, T., … Bierne, N. (2019). Replicated anthropogenic hybridisations reveal parallel patterns of admixture in marine mussels. BioRxiv. https://doi.org/10.1101/590737"
"FIL",,,,"Abdellah",,,"kasp_3",,,,,,"unpublished"
"FIM",,,"Charente, France",,,"NucleoMag_tissue","kasp_1",,,,,,"unpublished"
"FINO",55.195,7.1583,"FINO 3, North Sea","Joop Coolen","2015-09-23",,"kasp_3",,,,,"Research platform / Depth 4m","Simon, A., Arbiol, C., Nielsen, E. E., Couteau, J., Sussarellu, R., Burgeot, T., … Bierne, N. (2019). Replicated anthropogenic hybridisations reveal parallel patterns of admixture in marine mussels. BioRxiv. https://doi.org/10.1101/590737 & Coolen, J. W. P. (2017). North Sea reefs: Benthic biodiversity of artificial and rocky reefs in the southern North Sea (PhD thesis, Wageningen University). Retrieved from http://edepot.wur.nl/404837"
"FIO_001",,,"Le Fiol, France","lot Abdellah",,"NucleoMag_tissue","kasp_3",,,,,,"unpublished"
"FR",57.458789,10.541081,"Frederikshaun, Denmark","Lasse Fast Jensen","2016-09-26","NucleoMag_tissue","kasp_2",,,,,,"unpublished"
"FRE",48.645278,-2.297917,"Baie de la Fresnaye, France","Jérome Couteau (Toxem) + Rossana Sussarellu",2016,"NucleoMag_tissue","kasp_2",,,,,"ROCCH station 18, Q2 code 023-P-014","unpublished"
"FWB_001",46.27151,-1.381558,"Filière Pertuis Breton, France","MORBLEU","2016-11-30","NucleoMag_tissue","kasp_3",,,,,"bouée filière ouest","Pepin Jean-Francois, Benabdelmouna Abdellah, Bierne Nicolas, Costes Louis, Degremont Lionel, Garcia Celine, Guesdon Stephane, Lamy Jean-Baptiste, Le Moine Olivier, Morga Benjamin, Normand Julien, Robert Stephane, Saunier Alice, Soletchnik Patrick, Travers Marie-Agnes (2018). Mortalités de moules bleues dans les secteurs mytilicoles : description et étude des facteurs liés, action –MORBLEU-2017. R.INT.RBE/SG2M-LGPMM-2018. https://archimer.ifremer.fr/doc/00503/61503/"
"FZ",43.640907,-7.342928,"Areoura-Foz, Galicia, Spain","Angel P. Diz",,"NucleoMag_tissue","kasp_2",,,,,"approximate coordinates","Unpublished: Diz A.P., Simon A., Bierne N., Skibinski D.O.F."
"GA",62.46399,6.24164,"Gaseid, Alesund, Norway","Petr Strelkov",2015,"NucleoMag_tissue","kasp_2 / kasp_3",,,,,,"Simon, A., Arbiol, C., Nielsen, E. E., Couteau, J., Sussarellu, R., Burgeot, T., … Bierne, N. (2019). Replicated anthropogenic hybridisations reveal parallel patterns of admixture in marine mussels. BioRxiv. https://doi.org/10.1101/590737"
"Gdansk",54.609556,18.527944,"Gulf of Gdansk, Poland","Thierry Comtet","2012-08-23","NucleoMag_tissue","kasp_3",,,,,"site Mechelinki, drague Van Veen à partir du bateau r/v Oceanograf 2 (Université de Gdansk). Le site a une profondeur d'environ 10 m et est localisé près de l'émissaire de l'usine de traitement de la ville de Debogorze (qui traite aussi les eaux de Gdynia, une des villes proches de Gdansk). Les moules ont été fixées à l'éthanol 96% au retour au labo, en batch (y compris avec d'autres espèces de bivalves, comme des coques, mais très peu).","Simon, A., Arbiol, C., Nielsen, E. E., Couteau, J., Sussarellu, R., Burgeot, T., … Bierne, N. (2019). Replicated anthropogenic hybridisations reveal parallel patterns of admixture in marine mussels. BioRxiv. https://doi.org/10.1101/590737"
"GR",,,,"Abdellah",,,"kasp_3",,,,,,"unpublished"
"GRA_001",48.825,-1.588,"Granville, France","MORBLEU","2016-12-01","NucleoMag_tissue","kasp_3",,,,,"prelèvement à proximité du port de Granville,  Les moules ne sont pas nombreuse et se situe sur les rocher à un coefficient de marée estimé en 50 et 60","Pepin Jean-Francois, Benabdelmouna Abdellah, Bierne Nicolas, Costes Louis, Degremont Lionel, Garcia Celine, Guesdon Stephane, Lamy Jean-Baptiste, Le Moine Olivier, Morga Benjamin, Normand Julien, Robert Stephane, Saunier Alice, Soletchnik Patrick, Travers Marie-Agnes (2018). Mortalités de moules bleues dans les secteurs mytilicoles : description et étude des facteurs liés, action –MORBLEU-2017. R.INT.RBE/SG2M-LGPMM-2018. https://archimer.ifremer.fr/doc/00503/61503/"
"Gran",48.840033,-1.599468,"Granville, France",,2015,"NucleoMag_tissue","kasp_1",,,,,,"Simon, A., Arbiol, C., Nielsen, E. E., Couteau, J., Sussarellu, R., Burgeot, T., … Bierne, N. (2019). Replicated anthropogenic hybridisations reveal parallel patterns of admixture in marine mussels. BioRxiv. https://doi.org/10.1101/590737"
"GrCa",49.408033,-1.036333,"Grancamp, France","Julien Normand + CRC Normandie",2015,"NucleoMag_tissue","kasp_1",,,,,,"Simon, A., Arbiol, C., Nielsen, E. E., Couteau, J., Sussarellu, R., Burgeot, T., … Bierne, N. (2019). Replicated anthropogenic hybridisations reveal parallel patterns of admixture in marine mussels. BioRxiv. https://doi.org/10.1101/590737"
"Groix",47.647013,-3.459113,"Groix, France",,,"NucleoMag_tissue","kasp_1",,,,,"approximate coordinates","Simon, A., Arbiol, C., Nielsen, E. E., Couteau, J., Sussarellu, R., Burgeot, T., … Bierne, N. (2019). Replicated anthropogenic hybridisations reveal parallel patterns of admixture in marine mussels. BioRxiv. https://doi.org/10.1101/590737"
"HA",57.122231,8.637481,"Hanstholm, Denmark","Lasse Fast Jensen","2016-09-27","NucleoMag_tissue","kasp_2",,,,,,"unpublished"
"Ha1",,,"fish market mussels, Sete (France) imported from Galicia (Spain)",,,"NucleoMag_tissue","kasp_1",,,,,,"unpublished"
"Ha3",,,"fish market mussels, Sete (France) imported from Galicia (Spain)",,,"NucleoMag_tissue","kasp_1",,,,,,"unpublished"
"HARW",51.9348,1.2813,"Harwich, North Sea","Joop Coolen","2015-11-15",,"kasp_3",,,,,"Pebble beach / Depth 0m","Simon, A., Arbiol, C., Nielsen, E. E., Couteau, J., Sussarellu, R., Burgeot, T., … Bierne, N. (2019). Replicated anthropogenic hybridisations reveal parallel patterns of admixture in marine mussels. BioRxiv. https://doi.org/10.1101/590737 & Coolen, J. W. P. (2017). North Sea reefs: Benthic biodiversity of artificial and rocky reefs in the southern North Sea (PhD thesis, Wageningen University). Retrieved from http://edepot.wur.nl/404837"
"Havre_A",49.48586,0.11327,"Le Havre, France","Jérome Couteau (Toxem)",2016,"NucleoMag_tissue","kasp_2",,,,,,"Simon, A., Arbiol, C., Nielsen, E. E., Couteau, J., Sussarellu, R., Burgeot, T., … Bierne, N. (2019). Replicated anthropogenic hybridisations reveal parallel patterns of admixture in marine mussels. BioRxiv. https://doi.org/10.1101/590737"
"Havre_B",49.47316,0.11612,"Le Havre, France","Jérome Couteau (Toxem)",2016,"NucleoMag_tissue","kasp_2",,,,,,"Simon, A., Arbiol, C., Nielsen, E. E., Couteau, J., Sussarellu, R., Burgeot, T., … Bierne, N. (2019). Replicated anthropogenic hybridisations reveal parallel patterns of admixture in marine mussels. BioRxiv. https://doi.org/10.1101/590737"
"Havre_C",49.47,0.12268,"Le Havre, France","Jérome Couteau (Toxem)",2016,"NucleoMag_tissue","kasp_2",,,,,,"Simon, A., Arbiol, C., Nielsen, E. E., Couteau, J., Sussarellu, R., Burgeot, T., … Bierne, N. (2019). Replicated anthropogenic hybridisations reveal parallel patterns of admixture in marine mussels. BioRxiv. https://doi.org/10.1101/590737"
"Havre_D",49.46841,0.13867,"Le Havre, France","Jérome Couteau (Toxem)",2016,"NucleoMag_tissue","kasp_2",,,,,,"Simon, A., Arbiol, C., Nielsen, E. E., Couteau, J., Sussarellu, R., Burgeot, T., … Bierne, N. (2019). Replicated anthropogenic hybridisations reveal parallel patterns of admixture in marine mussels. BioRxiv. https://doi.org/10.1101/590737"
"Havre_E",49.46831,0.15604,"Le Havre, France","Jérome Couteau (Toxem)",2016,"NucleoMag_tissue","kasp_2",,,,,,"Simon, A., Arbiol, C., Nielsen, E. E., Couteau, J., Sussarellu, R., Burgeot, T., … Bierne, N. (2019). Replicated anthropogenic hybridisations reveal parallel patterns of admixture in marine mussels. BioRxiv. https://doi.org/10.1101/590737"
"Havre_F",49.47585,0.15841,"Le Havre, France","Jérome Couteau (Toxem)",2016,"NucleoMag_tissue","kasp_2",,,,,,"Simon, A., Arbiol, C., Nielsen, E. E., Couteau, J., Sussarellu, R., Burgeot, T., … Bierne, N. (2019). Replicated anthropogenic hybridisations reveal parallel patterns of admixture in marine mussels. BioRxiv. https://doi.org/10.1101/590737"
"Havre_G",49.47242,0.17341,"Le Havre, France","Jérome Couteau (Toxem)",2016,"NucleoMag_tissue","kasp_2",,,,,,"Simon, A., Arbiol, C., Nielsen, E. E., Couteau, J., Sussarellu, R., Burgeot, T., … Bierne, N. (2019). Replicated anthropogenic hybridisations reveal parallel patterns of admixture in marine mussels. BioRxiv. https://doi.org/10.1101/590737"
"Havre_H",49.48713,0.09767,"Le Havre, France","Jérome Couteau (Toxem)",2016,"NucleoMag_tissue","kasp_2",,,,,,"Simon, A., Arbiol, C., Nielsen, E. E., Couteau, J., Sussarellu, R., Burgeot, T., … Bierne, N. (2019). Replicated anthropogenic hybridisations reveal parallel patterns of admixture in marine mussels. BioRxiv. https://doi.org/10.1101/590737"
"Havre_I",49.45401,0.1651,"Le Havre, France","Jérome Couteau (Toxem)",2016,"NucleoMag_tissue","kasp_2",,,,,,"Simon, A., Arbiol, C., Nielsen, E. E., Couteau, J., Sussarellu, R., Burgeot, T., … Bierne, N. (2019). Replicated anthropogenic hybridisations reveal parallel patterns of admixture in marine mussels. BioRxiv. https://doi.org/10.1101/590737"
"Havre-J",49.488933,0.118317,"Le Havre, France","Alexis Simon + Association Port Vivant (Le Havre)","2017-07-02","NucleoMag_tissue","kasp_3",,,,,"Bassin de la Barre, Le Havre. Sous le ponton, moules présentent en grande quantités sur les murs, le ponton et le fond près des murs autour du bassin. Bassin à faibles marées dépendant des ouvertures d'écluses.","Simon, A., Arbiol, C., Nielsen, E. E., Couteau, J., Sussarellu, R., Burgeot, T., … Bierne, N. (2019). Replicated anthropogenic hybridisations reveal parallel patterns of admixture in marine mussels. BioRxiv. https://doi.org/10.1101/590737"
"Her",35.338,25.1442,"Heraklion, Greece",,,"NucleoMag_tissue","kasp_1 / kasp_3bis",,,,,"approximate coordinates","Simon, A., Arbiol, C., Nielsen, E. E., Couteau, J., Sussarellu, R., Burgeot, T., … Bierne, N. (2019). Replicated anthropogenic hybridisations reveal parallel patterns of admixture in marine mussels. BioRxiv. https://doi.org/10.1101/590737"
"HI",57.595653,9.957281,"Hirtshals, Denmark","Lasse Fast Jensen","2016-09-26","NucleoMag_tissue","kasp_2",,,,,,"unpublished"
"HJ",55.027447,8.636378,"Hjerpsted, Denmark","Lasse Fast Jensen","2016-10-07","NucleoMag_tissue","kasp_2",,,,,,"unpublished"
"Holl",53.31,5.424,"Wadden Sea, The Netherlands",,2009,"NucleoMag_tissue","kasp_1 / kasp_2",,,,,,"Simon, A., Arbiol, C., Nielsen, E. E., Couteau, J., Sussarellu, R., Burgeot, T., … Bierne, N. (2019). Replicated anthropogenic hybridisations reveal parallel patterns of admixture in marine mussels. BioRxiv. https://doi.org/10.1101/590737"
"HORN",55.4789,7.811,"Horns Rev, North Sea","Joop Coolen","2015-06-10",,"kasp_3",,,,,"Wind farm / Depth 0m","Simon, A., Arbiol, C., Nielsen, E. E., Couteau, J., Sussarellu, R., Burgeot, T., … Bierne, N. (2019). Replicated anthropogenic hybridisations reveal parallel patterns of admixture in marine mussels. BioRxiv. https://doi.org/10.1101/590737 & Coolen, J. W. P. (2017). North Sea reefs: Benthic biodiversity of artificial and rocky reefs in the southern North Sea (PhD thesis, Wageningen University). Retrieved from http://edepot.wur.nl/404837"
"HOS_001",43.655537,-1.439209,"Hossegore canal, France","MORBLEU","2016-12-15","NucleoMag_tissue","kasp_3",,,,,"Gisement de moule sortie de l'étang d'Hossegor  prélèvement Moules 100 familles Morbleu 2017. Prélèvement le 14 décembre 2016. trés grosse moules zone où la prospection de moules est normalement interdite.","Pepin Jean-Francois, Benabdelmouna Abdellah, Bierne Nicolas, Costes Louis, Degremont Lionel, Garcia Celine, Guesdon Stephane, Lamy Jean-Baptiste, Le Moine Olivier, Morga Benjamin, Normand Julien, Robert Stephane, Saunier Alice, Soletchnik Patrick, Travers Marie-Agnes (2018). Mortalités de moules bleues dans les secteurs mytilicoles : description et étude des facteurs liés, action –MORBLEU-2017. R.INT.RBE/SG2M-LGPMM-2018. https://archimer.ifremer.fr/doc/00503/61503/"
"HOU_001",47.419667,-2.937233,"Ile de Houat, France","MORBLEU","2017-01-10","NucleoMag_tissue","kasp_3",,,,,"Bouée HOUAT  en baie de Quiberon.  Prélèvement sur une bouée cardinal de la zone mytilicole d’élevage sur filière de l’île de Houat en baie de Quiberon. Récupération des moules sous la bouée en plongée (JF Bouget). Les moules sont des moules capté en 2016 il n’y a pas de veielle moules sur cette bouée. Observation de coquille cassé (broyées) on peut soupsonner une prédation par des daurades sur ce type de site.. La taille des moules devraient être beaucoup plus grande. Maintenant les bouées peuvent avoir également été nettoyées par les Phares et Balises ou les professionnels eux même. Prélèvements Bouget Strobert le 10/01/2017.","Simon, A., Arbiol, C., Nielsen, E. E., Couteau, J., Sussarellu, R., Burgeot, T., … Bierne, N. (2019). Replicated anthropogenic hybridisations reveal parallel patterns of admixture in marine mussels. BioRxiv. https://doi.org/10.1101/590737"
"HS",56.991206,10.31895,"Hals, Denmark","Lasse Fast Jensen","2016-09-26","NucleoMag_tissue","kasp_2",,,,,,"unpublished"
"HV",56.003664,8.127828,"Hvide Sande, Denmark","Lasse Fast Jensen","2016-09-11","NucleoMag_tissue","kasp_2",,,,,,"unpublished"
"HYC",,,"putative ""hybrid"" from Croyde, again based on some morphological features.","Angel P. Diz",,"NucleoMag_tissue","kasp_2",,,,,,"Unpublished: Diz A.P., Simon A., Bierne N., Skibinski D.O.F."
"HyC",,,"putative ""hybrid"" from Croyde, again based on some morphological features.","Angel P. Diz",,"NucleoMag_tissue","kasp_2",,,,,,"Unpublished: Diz A.P., Simon A., Bierne N., Skibinski D.O.F."
"JapSea",42.893752,132.734119,"Vostok Biological Station, Vostok Bay","Petr Strelkov",,"NucleoMag_tissue","kasp1 / kasp_3",,,,,,"Simon, A., Arbiol, C., Nielsen, E. E., Couteau, J., Sussarellu, R., Burgeot, T., … Bierne, N. (2019). Replicated anthropogenic hybridisations reveal parallel patterns of admixture in marine mussels. BioRxiv. https://doi.org/10.1101/590737"
"Jer",49.173083,-2.020383,"JER, Jersey, France","Julien Normand + CRC Normandie",2016,"NucleoMag_tissue","kasp_2",,,,,,"Simon, A., Arbiol, C., Nielsen, E. E., Couteau, J., Sussarellu, R., Burgeot, T., … Bierne, N. (2019). Replicated anthropogenic hybridisations reveal parallel patterns of admixture in marine mussels. BioRxiv. https://doi.org/10.1101/590737"
"JH",,,,"Jerry Hilbish",,,"kasp_3",,,,,,"unpublished"
"JOS_001",48.558056,-2.600278,"Baie de St Brieuc, France","MORBLEU","2016-11-30","NucleoMag_tissue","kasp_3",,,,,"Jospinet / les moules se trouvent sur les rochers  en bordure d'estran à un coeficient de 40-50. Les moules se trouvent au dessus de la zone de captage d'huîtes. Observation d'un capatge de moules 2016 (nouvelain) très important sur le site.","Pepin Jean-Francois, Benabdelmouna Abdellah, Bierne Nicolas, Costes Louis, Degremont Lionel, Garcia Celine, Guesdon Stephane, Lamy Jean-Baptiste, Le Moine Olivier, Morga Benjamin, Normand Julien, Robert Stephane, Saunier Alice, Soletchnik Patrick, Travers Marie-Agnes (2018). Mortalités de moules bleues dans les secteurs mytilicoles : description et étude des facteurs liés, action –MORBLEU-2017. R.INT.RBE/SG2M-LGPMM-2018. https://archimer.ifremer.fr/doc/00503/61503/"
"JOS_002",48.558056,-2.600278,"Baie de St Brieuc, France","MORBLEU","2016-11-30","NucleoMag_tissue","kasp_3",,,,,"Jospinet / les moules se trouvent sur les rochers  en bordure d'estran à un coeficient de 40-50. Les moules se trouvent au dessus de la zone de captage d'huîtes. Observation d'un capatge de moules 2016 (nouvelain) très important sur le site.","Pepin Jean-Francois, Benabdelmouna Abdellah, Bierne Nicolas, Costes Louis, Degremont Lionel, Garcia Celine, Guesdon Stephane, Lamy Jean-Baptiste, Le Moine Olivier, Morga Benjamin, Normand Julien, Robert Stephane, Saunier Alice, Soletchnik Patrick, Travers Marie-Agnes (2018). Mortalités de moules bleues dans les secteurs mytilicoles : description et étude des facteurs liés, action –MORBLEU-2017. R.INT.RBE/SG2M-LGPMM-2018. https://archimer.ifremer.fr/doc/00503/61503/"
"JUM",47.833972,-3.900439,"La Jument, France","Jérome Couteau (Toxem) + Rossana Sussarellu",2016,"NucleoMag_tissue","kasp_2",,,,,"ROCCH station 23, Q2 code 049-P-014","Simon, A., Arbiol, C., Nielsen, E. E., Couteau, J., Sussarellu, R., Burgeot, T., … Bierne, N. (2019). Replicated anthropogenic hybridisations reveal parallel patterns of admixture in marine mussels. BioRxiv. https://doi.org/10.1101/590737"
"K10B",53.3626,3.2539,"K10-B, North Sea","Joop Coolen","2014-10-01",,"kasp_3",,,,,"O&G platform / Depth 27m","Simon, A., Arbiol, C., Nielsen, E. E., Couteau, J., Sussarellu, R., Burgeot, T., … Bierne, N. (2019). Replicated anthropogenic hybridisations reveal parallel patterns of admixture in marine mussels. BioRxiv. https://doi.org/10.1101/590737 & Coolen, J. W. P. (2017). North Sea reefs: Benthic biodiversity of artificial and rocky reefs in the southern North Sea (PhD thesis, Wageningen University). Retrieved from http://edepot.wur.nl/404837"
"KER",48.11565,-4.28515,"Kervel, France","Jérome Couteau (Toxem) + Rossana Sussarellu",2016,"NucleoMag_tissue","kasp_2",,,,,"ROCCH station 21, Q2 code 040-P-001","unpublished"
"ker",,,"Kerguelen island",,,"NucleoMag_tissue","kasp_3",,,,,,"unpublished"
"KO",55.498497,9.626625,"Kolding, Denmark","Lasse Fast Jensen","2016-10-09","NucleoMag_tissue","kasp_2",,,,,,"unpublished"
"KOR",34.833926,128.447074,"South Korea","Pierre Boudry",,"NucleoMag_tissue","kasp_3",,,,,"Approximate coordinates","Simon, A., Arbiol, C., Nielsen, E. E., Couteau, J., Sussarellu, R., Burgeot, T., … Bierne, N. (2019). Replicated anthropogenic hybridisations reveal parallel patterns of admixture in marine mussels. BioRxiv. https://doi.org/10.1101/590737"
"L1",48.7457,-3.590067,"Lannion, France","Ismaël Bernard (Eureka)","2017-02-24","NucleoMag_tissue","kasp_3",,,,,"origin: Pénestin/ type: Référence/ note: / method: Filière/ age: 7 mois","unpublished"
"L10",48.340334,-4.315825,"bay of Brest, France","Ismaël Bernard (Eureka)","2017-05-29","NucleoMag_tissue","kasp_3",,,,,"origin: La Plaine sur mer/ type: Elevage/ note: Lot prélevé en rivière du Faou, sur un élevage ayant subi près de 80% de mortalité/ method: Bouchot/ age: 7 mois","unpublished"
"L10G",53.4904,4.1952,"L10-G, North Sea","Joop Coolen","2014-06-08",,"kasp_3",,,,,"O&G platform / Depth 10m","Coolen, J. W. P. (2017). North Sea reefs: Benthic biodiversity of artificial and rocky reefs in the southern North Sea (PhD thesis, Wageningen University). Retrieved from http://edepot.wur.nl/404837"
"L11",48.607,-2.219,"Arguenon, France","Ismaël Bernard (Eureka)","2017-05-29","NucleoMag_tissue","kasp_3",,,,,"origin: NA/ type: Elevage/ note: / method: Bouchot/ age: 7 mois","unpublished"
"L12",,,"Saint-Brieuc, France","Ismaël Bernard (Eureka)","2017-05-28","NucleoMag_tissue","kasp_3",,,,,"origin: Sauvages/ type: Sauvages/ note: / method: Sauvages/ age: NA","unpublished"
"L13",48.550223,-2.647405,"Saint-Brieuc, France","Ismaël Bernard (Eureka)","2017-05-28","NucleoMag_tissue","kasp_3",,,,,"origin: Noirmoutier/ type: Elevage/ note: Neoplasie détectée par Maryline Houssin/ method: Bouchot/ age: 7 mois","unpublished"
"L14",,,"La Fresnaye, France","Ismaël Bernard (Eureka)","2017-05-29","NucleoMag_tissue","kasp_3",,,,,"origin: Charron/ type: Elevage/ note: / method: Bouchot/ age: 7 mois","unpublished"
"L15",,,"Le vivier-sur-mer, France","Ismaël Bernard (Eureka)","2017-05-29","NucleoMag_tissue","kasp_3",,,,,"origin: Baie d'Yves/ type: Elevage/ note: / method: Bouchot/ age: 7 mois","unpublished"
"L16",48.340334,-4.315825,"bay of Brest, France","Ismaël Bernard (Eureka)","2017-09-20","NucleoMag_tissue","kasp_3",,,,,"origin: La Plaine sur mer/ type: Elevage/ note: Lot de comparaison des techniques/ method: Bouchot/ age:","unpublished"
"L17",48.7457,-3.590067,"Pénestin, France","Ismaël Bernard (Eureka)","2017-10-03","NucleoMag_tissue","kasp_3",,,,,"origin: Pénestin/ type: Elevage/ note: Prélèvement hémolymphe après anesthésie/ method: Filière/ age: 7 mois","unpublished"
"L18",48.7457,-3.590067,"Lannion, France","Ismaël Bernard (Eureka)","2017-10-03","NucleoMag_tissue","kasp_3",,,,,"origin: Pénestin/ type: Elevage/ note: Prélèvement hémolymphe après anesthésie/ method: Sauvages/ age: NA","unpublished"
"L19",48.7457,-3.590067,"Lannion, France","Ismaël Bernard (Eureka)","2017-10-03","NucleoMag_tissue","kasp_3",,,,,"origin: Dunkerque/ type: Elevage/ note: Prélèvement d'hémolymphe compliqué, anestésié trop longtemps ?/ method: Filière/ age: 7 mois","unpublished"
"L2",48.550223,-2.647405,"Saint-Brieuc, France","Ismaël Bernard (Eureka)","2017-02-27","NucleoMag_tissue","kasp_3",,,,,"origin: Noirmoutier/ type: Elevage/ note: / method: Bouchot/ age: 7 mois","unpublished"
"L20",48.7457,-3.590067,"Lannion, France","Ismaël Bernard (Eureka)","2017-10-03","NucleoMag_tissue","kasp_3",,,,,"origin: île Dumet/ type: Elevage/ note: Prélèvement hémolymphe après anesthésie/ method: Filière/ age: 7 mois","unpublished"
"L3",48.340334,-4.315825,"bay of Brest, France","Ismaël Bernard (Eureka)","2017-02-27","NucleoMag_tissue","kasp_3",,,,,"origin: La Plaine sur mer/ type: Elevage/ note: Début de mortalité constaté lors du prélèvement/ method: Bouchot/ age: 7 mois","unpublished"
"L4",48.2822,-4.5723,"bay of Brest (Camaret), France","Ismaël Bernard (Eureka)","2017-04-24","NucleoMag_tissue","kasp_3",,,,,"origin: Sauvages/ type: Sauvages/ note: / method: Sauvages/ age: NA","Simon, A., Arbiol, C., Nielsen, E. E., Couteau, J., Sussarellu, R., Burgeot, T., … Bierne, N. (2019). Replicated anthropogenic hybridisations reveal parallel patterns of admixture in marine mussels. BioRxiv. https://doi.org/10.1101/590737"
"L5",48.377327,-4.488155,"bay of Brest (port), France","Ismaël Bernard (Eureka)","2017-04-24","NucleoMag_tissue","kasp_3",,,,,"origin: Sauvages/ type: Sauvages/ note: / method: Sauvages/ age: NA","Simon, A., Arbiol, C., Nielsen, E. E., Couteau, J., Sussarellu, R., Burgeot, T., … Bierne, N. (2019). Replicated anthropogenic hybridisations reveal parallel patterns of admixture in marine mussels. BioRxiv. https://doi.org/10.1101/590737"
"L6",48.340334,-4.315825,"bay of Brest, France","Ismaël Bernard (Eureka)","2017-04-24","NucleoMag_tissue","kasp_3",,,,,"origin: La Plaine sur mer/ type: Elevage/ note: Mortalité cumulée constatée à 45% lors du prélèvement, indice de demi-disparition à 91 jours/ method: Bouchot/ age: 7 mois","unpublished"
"L7",48.587646,-4.502225,"Aber Wrac'h, France","Ismaël Bernard (Eureka)","2017-04-24","NucleoMag_tissue","kasp_3",,,,,"origin: Noirmoutier/ type: Elevage/ note: / method: Bouchot/ age: 7 mois","unpublished"
"L8",48.550223,-2.647405,"Saint-Brieuc, France","Ismaël Bernard (Eureka)","2017-04-24","NucleoMag_tissue","kasp_3",,,,,"origin: Noirmoutier/ type: Elevage/ note: / method: Bouchot/ age: 7 mois","unpublished"
"L9",48.7457,-3.590067,"Lannion, France","Ismaël Bernard (Eureka)","2017-05-17","NucleoMag_tissue","kasp_3",,,,,"origin: Penestin/ type: Reference/ note: Sélection pour retrouver des moribondes/ method: Filière/ age: 7 mois","unpublished"
"LAN-VIV",48.7457,-3.590067,"Lannion, France","Erika Burioli",,"NucleoMag_tissue","kasp_3",,,,,"Approximate coordinates","unpublished"
"LaRochA",46.14988,-1.22359,"La Rochelle, France","Ismaël Bernard (Eureka)","2017-06-24","NucleoMag_tissue","kasp_3 / kasp_3bis",,,,,"Chef de Baie, ponton 12, La Rochelle / not in good shape, poor in tissue, filled with crabs","Simon, A., Arbiol, C., Nielsen, E. E., Couteau, J., Sussarellu, R., Burgeot, T., … Bierne, N. (2019). Replicated anthropogenic hybridisations reveal parallel patterns of admixture in marine mussels. BioRxiv. https://doi.org/10.1101/590737"
"LaRochB",46.15045,-1.22449,"La Rochelle, France","Ismaël Bernard (Eureka)","2017-06-25","NucleoMag_tissue","kasp_3 / kasp_3bis",,,,,"Chef de Baie, ponton 13, La Rochelle/ not in good shape, poor in tissue, filled with crabs","Simon, A., Arbiol, C., Nielsen, E. E., Couteau, J., Sussarellu, R., Burgeot, T., … Bierne, N. (2019). Replicated anthropogenic hybridisations reveal parallel patterns of admixture in marine mussels. BioRxiv. https://doi.org/10.1101/590737"
"LE",56.455428,-5.308771,"Loch Etive, Scotland, UK","Petr Strelkov",,"NucleoMag_tissue","kasp_2",,,,,,"unpublished"
"LeHaCM",49.457252,0.113797,"Le Havre, France","Toxem + Jérôme Couteau",2017,"NucleoMag_tissue","kasp_3",,,,,"Digue Sud côté estuaire, Le Havre / approximate coordinates","Simon, A., Arbiol, C., Nielsen, E. E., Couteau, J., Sussarellu, R., Burgeot, T., … Bierne, N. (2019). Replicated anthropogenic hybridisations reveal parallel patterns of admixture in marine mussels. BioRxiv. https://doi.org/10.1101/590737"
"LeHaP1",49.464664,0.105794,"Le Havre P1, France","Toxem + Jérôme Couteau",2017,"NucleoMag_tissue","kasp_3",,,,,"Bassin Port 2000, Le Havre / approximate coordinates","Simon, A., Arbiol, C., Nielsen, E. E., Couteau, J., Sussarellu, R., Burgeot, T., … Bierne, N. (2019). Replicated anthropogenic hybridisations reveal parallel patterns of admixture in marine mussels. BioRxiv. https://doi.org/10.1101/590737"
"LeHaP10",49.453519,0.173317,"Le Havre P10, France","Toxem + Jérôme Couteau",2017,"NucleoMag_tissue","kasp_3",,,,,"Bassin Port 2000, Le Havre / approximate coordinates","Simon, A., Arbiol, C., Nielsen, E. E., Couteau, J., Sussarellu, R., Burgeot, T., … Bierne, N. (2019). Replicated anthropogenic hybridisations reveal parallel patterns of admixture in marine mussels. BioRxiv. https://doi.org/10.1101/590737"
"LeHaP11",49.454564,0.178067,"Le Havre P11, France","Toxem + Jérôme Couteau",2017,"NucleoMag_tissue","kasp_3",,,,,"Bassin Port 2000, Le Havre / approximate coordinates","Simon, A., Arbiol, C., Nielsen, E. E., Couteau, J., Sussarellu, R., Burgeot, T., … Bierne, N. (2019). Replicated anthropogenic hybridisations reveal parallel patterns of admixture in marine mussels. BioRxiv. https://doi.org/10.1101/590737"
"LeHaP2",49.460397,0.109964,"Le Havre P2, France","Toxem + Jérôme Couteau",2017,"NucleoMag_tissue","kasp_3",,,,,"Bassin Port 2000, Le Havre / approximate coordinates","Simon, A., Arbiol, C., Nielsen, E. E., Couteau, J., Sussarellu, R., Burgeot, T., … Bierne, N. (2019). Replicated anthropogenic hybridisations reveal parallel patterns of admixture in marine mussels. BioRxiv. https://doi.org/10.1101/590737"
"LeHaP3",49.45825,0.114733,"Le Havre P3, France","Toxem + Jérôme Couteau",2017,"NucleoMag_tissue","kasp_3",,,,,"Bassin Port 2000, Le Havre / approximate coordinates","Simon, A., Arbiol, C., Nielsen, E. E., Couteau, J., Sussarellu, R., Burgeot, T., … Bierne, N. (2019). Replicated anthropogenic hybridisations reveal parallel patterns of admixture in marine mussels. BioRxiv. https://doi.org/10.1101/590737"
"LeHaP4",49.457344,0.121375,"Le Havre P4, France","Toxem + Jérôme Couteau",2017,"NucleoMag_tissue","kasp_3",,,,,"Bassin Port 2000, Le Havre / approximate coordinates","Simon, A., Arbiol, C., Nielsen, E. E., Couteau, J., Sussarellu, R., Burgeot, T., … Bierne, N. (2019). Replicated anthropogenic hybridisations reveal parallel patterns of admixture in marine mussels. BioRxiv. https://doi.org/10.1101/590737"
